{
  "101": [
    {
      "StopPointName": "Ranip Cross Road",
      "Location": {
        "Longitude": 72.575648,
        "Latitude": 23.067603
      },
      "LineRef": "101",
      "Order": 2,
      "nextDistance": 535.512
    },
    {
      "StopPointName": "N R Patel Park",
      "Location": {
        "Longitude": 72.571726,
        "Latitude": 23.066288
      },
      "LineRef": "101",
      "Order": 3,
      "nextDistance": 517.141
    },
    {
      "StopPointName": "Ramapir No Tekaro",
      "Location": {
        "Longitude": 72.571743,
        "Latitude": 23.06164
      },
      "LineRef": "101",
      "Order": 4,
      "nextDistance": 543.016
    },
    {
      "StopPointName": "Juna Vadaj",
      "Location": {
        "Longitude": 72.57171,
        "Latitude": 23.05676
      },
      "LineRef": "101",
      "Order": 5,
      "nextDistance": 1559.9
    },
    {
      "StopPointName": "Gurudwara",
      "Location": {
        "Longitude": 72.582406,
        "Latitude": 23.048522
      },
      "LineRef": "101",
      "Order": 6,
      "nextDistance": 426.377
    },
    {
      "StopPointName": "Hanumanpura",
      "Location": {
        "Longitude": 72.583773,
        "Latitude": 23.044912
      },
      "LineRef": "101",
      "Order": 7,
      "nextDistance": 387.232
    },
    {
      "StopPointName": "Sarkari Litho Press",
      "Location": {
        "Longitude": 72.585218,
        "Latitude": 23.041696
      },
      "LineRef": "101",
      "Order": 8,
      "nextDistance": 377.537
    },
    {
      "StopPointName": "Sarkari Litho Press Cabin",
      "Location": {
        "Longitude": 72.586331,
        "Latitude": 23.039398
      },
      "LineRef": "101",
      "Order": 9,
      "nextDistance": 1222.327
    },
    {
      "StopPointName": "Delhi Darwaja",
      "Location": {
        "Longitude": 72.589897,
        "Latitude": 23.037656
      },
      "LineRef": "101",
      "Order": 10,
      "nextDistance": 1683.53
    },
    {
      "StopPointName": "Prem Darwaja",
      "Location": {
        "Longitude": 72.594861,
        "Latitude": 23.037267
      },
      "LineRef": "101",
      "Order": 11,
      "nextDistance": 1374.303
    },
    {
      "StopPointName": "Kalupur Ghee Bazar",
      "Location": {
        "Longitude": 72.599906,
        "Latitude": 23.03139
      },
      "LineRef": "101",
      "Order": 12,
      "nextDistance": 532.925
    },
    {
      "StopPointName": "Kalupur",
      "Location": {
        "Longitude": 72.600952,
        "Latitude": 23.027302
      },
      "LineRef": "101",
      "Order": 13,
      "nextDistance": 809.31
    },
    {
      "StopPointName": "Sarangpur Darwaja",
      "Location": {
        "Longitude": 72.599037,
        "Latitude": 23.021686
      },
      "LineRef": "101",
      "Order": 14,
      "nextDistance": 314.701
    },
    {
      "StopPointName": "Karnamukteshwar Mahadev",
      "Location": {
        "Longitude": 72.598923,
        "Latitude": 23.01901
      },
      "LineRef": "101",
      "Order": 15,
      "nextDistance": 362.125
    },
    {
      "StopPointName": "Raipur Darwaja",
      "Location": {
        "Longitude": 72.595989,
        "Latitude": 23.017383
      },
      "LineRef": "101",
      "Order": 16,
      "nextDistance": 401.93
    },
    {
      "StopPointName": "Astodiya Darwaja",
      "Location": {
        "Longitude": 72.592132,
        "Latitude": 23.016799
      },
      "LineRef": "101",
      "Order": 17,
      "nextDistance": 517.65
    },
    {
      "StopPointName": "Geeta Mandir",
      "Location": {
        "Longitude": 72.59141,
        "Latitude": 23.012996
      },
      "LineRef": "101",
      "Order": 18,
      "nextDistance": 718.587
    },
    {
      "StopPointName": "Bhulabhai Park",
      "Location": {
        "Longitude": 72.591111,
        "Latitude": 23.006627
      },
      "LineRef": "101",
      "Order": 19,
      "nextDistance": 373.141
    },
    {
      "StopPointName": "Mangal Park",
      "Location": {
        "Longitude": 72.589889,
        "Latitude": 23.003467
      },
      "LineRef": "101",
      "Order": 20,
      "nextDistance": 485.962
    },
    {
      "StopPointName": "Swaminarayan College",
      "Location": {
        "Longitude": 72.587073,
        "Latitude": 23.001365
      },
      "LineRef": "101",
      "Order": 21,
      "nextDistance": 464.115
    },
    {
      "StopPointName": "Vaikunth Dham Mandir",
      "Location": {
        "Longitude": 72.582907,
        "Latitude": 22.999793
      },
      "LineRef": "101",
      "Order": 22,
      "nextDistance": 677.603
    },
    {
      "StopPointName": "Danilimda Char Rasta",
      "Location": {
        "Longitude": 72.577389,
        "Latitude": 22.996454
      },
      "LineRef": "101",
      "Order": 23,
      "nextDistance": 728.289
    },
    {
      "StopPointName": "Khodiyarnagar",
      "Location": {
        "Longitude": 72.570423,
        "Latitude": 22.99548
      },
      "LineRef": "101",
      "Order": 24,
      "nextDistance": 1418.072
    },
    {
      "StopPointName": "Chandranagar",
      "Location": {
        "Longitude": 72.558034,
        "Latitude": 22.999754
      },
      "LineRef": "101",
      "Order": 25,
      "nextDistance": 615.104
    },
    {
      "StopPointName": "Anjali",
      "Location": {
        "Longitude": 72.553843,
        "Latitude": 23.003689
      },
      "LineRef": "101",
      "Order": 26,
      "nextDistance": 698.018
    },
    {
      "StopPointName": "Dharnidhar Derasar",
      "Location": {
        "Longitude": 72.549213,
        "Latitude": 23.008215
      },
      "LineRef": "101",
      "Order": 27,
      "nextDistance": 1295.098
    },
    {
      "StopPointName": "Manekbaug",
      "Location": {
        "Longitude": 72.543989,
        "Latitude": 23.018319
      },
      "LineRef": "101",
      "Order": 28,
      "nextDistance": 568.434
    },
    {
      "StopPointName": "Nehrunagar",
      "Location": {
        "Longitude": 72.541626,
        "Latitude": 23.022509
      },
      "LineRef": "101",
      "Order": 29,
      "nextDistance": 553.525
    },
    {
      "StopPointName": "Jhansi Ki Rani",
      "Location": {
        "Longitude": 72.536272,
        "Latitude": 23.023012
      },
      "LineRef": "101",
      "Order": 30,
      "nextDistance": 541.844
    },
    {
      "StopPointName": "Shivranjani",
      "Location": {
        "Longitude": 72.531232,
        "Latitude": 23.024282
      },
      "LineRef": "101",
      "Order": 31,
      "nextDistance": 779.336
    },
    {
      "StopPointName": "Himmatlal Park",
      "Location": {
        "Longitude": 72.532396,
        "Latitude": 23.029814
      },
      "LineRef": "101",
      "Order": 32,
      "nextDistance": 655.856
    },
    {
      "StopPointName": "Andhjan Mandal",
      "Location": {
        "Longitude": 72.535978,
        "Latitude": 23.034681
      },
      "LineRef": "101",
      "Order": 33,
      "nextDistance": 623.086
    },
    {
      "StopPointName": "University",
      "Location": {
        "Longitude": 72.538544,
        "Latitude": 23.039761
      },
      "LineRef": "101",
      "Order": 34,
      "nextDistance": 763.725
    },
    {
      "StopPointName": "Memnagar",
      "Location": {
        "Longitude": 72.542425,
        "Latitude": 23.045608
      },
      "LineRef": "101",
      "Order": 35,
      "nextDistance": 480.445
    },
    {
      "StopPointName": "Shree Valinath Chowk",
      "Location": {
        "Longitude": 72.545004,
        "Latitude": 23.049212
      },
      "LineRef": "101",
      "Order": 36,
      "nextDistance": 437.465
    },
    {
      "StopPointName": "Sola Cross Road",
      "Location": {
        "Longitude": 72.546783,
        "Latitude": 23.05273
      },
      "LineRef": "101",
      "Order": 37,
      "nextDistance": 609.328
    },
    {
      "StopPointName": "Jaimangal",
      "Location": {
        "Longitude": 72.549314,
        "Latitude": 23.057637
      },
      "LineRef": "101",
      "Order": 38,
      "nextDistance": 637.762
    },
    {
      "StopPointName": "Shastrinagar",
      "Location": {
        "Longitude": 72.552978,
        "Latitude": 23.062237
      },
      "LineRef": "101",
      "Order": 39,
      "nextDistance": 416.652
    },
    {
      "StopPointName": "Pragatinagar",
      "Location": {
        "Longitude": 72.556055,
        "Latitude": 23.064658
      },
      "LineRef": "101",
      "Order": 40,
      "nextDistance": 875.924
    },
    {
      "StopPointName": "Akhbarnagar",
      "Location": {
        "Longitude": 72.563817,
        "Latitude": 23.067571
      },
      "LineRef": "101",
      "Order": 41,
      "nextDistance": 496.896
    },
    {
      "StopPointName": "Bhavsar Hostel",
      "Location": {
        "Longitude": 72.568658,
        "Latitude": 23.067628
      },
      "LineRef": "101",
      "Order": 42,
      "nextDistance": 1528.085
    },
    {
      "StopPointName": "R.T.O Circle",
      "Location": {
        "Longitude": 72.581127,
        "Latitude": 23.068423
      },
      "LineRef": "101",
      "Order": 44
    }
  ],
  "201": [
    {
      "StopPointName": "Ranip Cross Road",
      "Location": {
        "Longitude": 72.575648,
        "Latitude": 23.067603
      },
      "LineRef": "201",
      "Order": 2,
      "nextDistance": 721.427
    },
    {
      "StopPointName": "Bhavsar Hostel",
      "Location": {
        "Longitude": 72.568599,
        "Latitude": 23.067575
      },
      "LineRef": "201",
      "Order": 3,
      "nextDistance": 495.191
    },
    {
      "StopPointName": "Akhbarnagar",
      "Location": {
        "Longitude": 72.563763,
        "Latitude": 23.067515
      },
      "LineRef": "201",
      "Order": 4,
      "nextDistance": 870.533
    },
    {
      "StopPointName": "Pragatinagar",
      "Location": {
        "Longitude": 72.556035,
        "Latitude": 23.064584
      },
      "LineRef": "201",
      "Order": 5,
      "nextDistance": 412.876
    },
    {
      "StopPointName": "Shastrinagar",
      "Location": {
        "Longitude": 72.552973,
        "Latitude": 23.062166
      },
      "LineRef": "201",
      "Order": 6,
      "nextDistance": 634.083
    },
    {
      "StopPointName": "Jaimangal",
      "Location": {
        "Longitude": 72.549326,
        "Latitude": 23.057561
      },
      "LineRef": "201",
      "Order": 7,
      "nextDistance": 2581.335
    },
    {
      "StopPointName": "Sola Cross Road",
      "Location": {
        "Longitude": 72.546818,
        "Latitude": 23.052638
      },
      "LineRef": "201",
      "Order": 8,
      "nextDistance": 1586.451
    },
    {
      "StopPointName": "Shree Valinath Chowk",
      "Location": {
        "Longitude": 72.545003,
        "Latitude": 23.049123
      },
      "LineRef": "201",
      "Order": 9,
      "nextDistance": 3421.994
    },
    {
      "StopPointName": "Memnagar",
      "Location": {
        "Longitude": 72.542414,
        "Latitude": 23.045498
      },
      "LineRef": "201",
      "Order": 10,
      "nextDistance": 3541.668
    },
    {
      "StopPointName": "University",
      "Location": {
        "Longitude": 72.538542,
        "Latitude": 23.039652
      },
      "LineRef": "201",
      "Order": 11,
      "nextDistance": 2097.453
    },
    {
      "StopPointName": "Andhjan Mandal",
      "Location": {
        "Longitude": 72.536006,
        "Latitude": 23.034618
      },
      "LineRef": "201",
      "Order": 12,
      "nextDistance": 657.903
    },
    {
      "StopPointName": "Himmatlal Park",
      "Location": {
        "Longitude": 72.532415,
        "Latitude": 23.029749
      },
      "LineRef": "201",
      "Order": 13,
      "nextDistance": 709.605
    },
    {
      "StopPointName": "Shivranjani",
      "Location": {
        "Longitude": 72.531305,
        "Latitude": 23.02433
      },
      "LineRef": "201",
      "Order": 14,
      "nextDistance": 542.165
    },
    {
      "StopPointName": "Jhansi Ki Rani",
      "Location": {
        "Longitude": 72.536349,
        "Latitude": 23.023044
      },
      "LineRef": "201",
      "Order": 15,
      "nextDistance": 552.231
    },
    {
      "StopPointName": "Nehrunagar",
      "Location": {
        "Longitude": 72.541715,
        "Latitude": 23.022555
      },
      "LineRef": "201",
      "Order": 16,
      "nextDistance": 615.57
    },
    {
      "StopPointName": "Manekbaug",
      "Location": {
        "Longitude": 72.544056,
        "Latitude": 23.018266
      },
      "LineRef": "201",
      "Order": 17,
      "nextDistance": 1291.806
    },
    {
      "StopPointName": "Dharnidhar Derasar",
      "Location": {
        "Longitude": 72.549301,
        "Latitude": 23.008206
      },
      "LineRef": "201",
      "Order": 18,
      "nextDistance": 693.41
    },
    {
      "StopPointName": "Anjali",
      "Location": {
        "Longitude": 72.55392,
        "Latitude": 23.003687
      },
      "LineRef": "201",
      "Order": 19,
      "nextDistance": 612.764
    },
    {
      "StopPointName": "Chandranagar",
      "Location": {
        "Longitude": 72.558125,
        "Latitude": 22.999757
      },
      "LineRef": "201",
      "Order": 20,
      "nextDistance": 1411.915
    },
    {
      "StopPointName": "Khodiyarnagar",
      "Location": {
        "Longitude": 72.570477,
        "Latitude": 22.995685
      },
      "LineRef": "201",
      "Order": 21,
      "nextDistance": 748.725
    },
    {
      "StopPointName": "Danilimda Char Rasta",
      "Location": {
        "Longitude": 72.577655,
        "Latitude": 22.996683
      },
      "LineRef": "201",
      "Order": 22,
      "nextDistance": 643.557
    },
    {
      "StopPointName": "Vaikunth Dham Mandir",
      "Location": {
        "Longitude": 72.582908,
        "Latitude": 22.999847
      },
      "LineRef": "201",
      "Order": 23,
      "nextDistance": 469.407
    },
    {
      "StopPointName": "Swaminarayan College",
      "Location": {
        "Longitude": 72.587096,
        "Latitude": 23.001416
      },
      "LineRef": "201",
      "Order": 24,
      "nextDistance": 458.416
    },
    {
      "StopPointName": "Mangal Park",
      "Location": {
        "Longitude": 72.589863,
        "Latitude": 23.003567
      },
      "LineRef": "201",
      "Order": 25,
      "nextDistance": 371.481
    },
    {
      "StopPointName": "Bhulabhai Park",
      "Location": {
        "Longitude": 72.59109,
        "Latitude": 23.006711
      },
      "LineRef": "201",
      "Order": 26,
      "nextDistance": 718.051
    },
    {
      "StopPointName": "Geeta Mandir",
      "Location": {
        "Longitude": 72.591353,
        "Latitude": 23.01307
      },
      "LineRef": "201",
      "Order": 27,
      "nextDistance": 827.157
    },
    {
      "StopPointName": "Raipur Darwaja",
      "Location": {
        "Longitude": 72.596045,
        "Latitude": 23.017445
      },
      "LineRef": "201",
      "Order": 28,
      "nextDistance": 349.972
    },
    {
      "StopPointName": "Karnamukteshwar Mahadev",
      "Location": {
        "Longitude": 72.598908,
        "Latitude": 23.01909
      },
      "LineRef": "201",
      "Order": 29,
      "nextDistance": 304.52
    },
    {
      "StopPointName": "Sarangpur Darwaja",
      "Location": {
        "Longitude": 72.598962,
        "Latitude": 23.021751
      },
      "LineRef": "201",
      "Order": 30,
      "nextDistance": 779.073
    },
    {
      "StopPointName": "Kalupur",
      "Location": {
        "Longitude": 72.600044,
        "Latitude": 23.02806
      },
      "LineRef": "201",
      "Order": 31,
      "nextDistance": 1200.488
    },
    {
      "StopPointName": "Prem Darwaja",
      "Location": {
        "Longitude": 72.594756,
        "Latitude": 23.037244
      },
      "LineRef": "201",
      "Order": 32,
      "nextDistance": 521.212
    },
    {
      "StopPointName": "Delhi Darwaja",
      "Location": {
        "Longitude": 72.589757,
        "Latitude": 23.037613
      },
      "LineRef": "201",
      "Order": 33,
      "nextDistance": 1680.239
    },
    {
      "StopPointName": "Sarkari Litho Press Cabin",
      "Location": {
        "Longitude": 72.586281,
        "Latitude": 23.039412
      },
      "LineRef": "201",
      "Order": 34,
      "nextDistance": 386.315
    },
    {
      "StopPointName": "Sarkari Litho Press",
      "Location": {
        "Longitude": 72.585138,
        "Latitude": 23.04174
      },
      "LineRef": "201",
      "Order": 35,
      "nextDistance": 388.475
    },
    {
      "StopPointName": "Hanumanpura",
      "Location": {
        "Longitude": 72.583686,
        "Latitude": 23.044965
      },
      "LineRef": "201",
      "Order": 36,
      "nextDistance": 430.755
    },
    {
      "StopPointName": "Gurudwara",
      "Location": {
        "Longitude": 72.582342,
        "Latitude": 23.048595
      },
      "LineRef": "201",
      "Order": 37,
      "nextDistance": 1609.092
    },
    {
      "StopPointName": "Juna Vadaj",
      "Location": {
        "Longitude": 72.571647,
        "Latitude": 23.056817
      },
      "LineRef": "201",
      "Order": 38,
      "nextDistance": 544.049
    },
    {
      "StopPointName": "Ramapir No Tekaro",
      "Location": {
        "Longitude": 72.571677,
        "Latitude": 23.061707
      },
      "LineRef": "201",
      "Order": 39,
      "nextDistance": 518.55
    },
    {
      "StopPointName": "N R Patel Park",
      "Location": {
        "Longitude": 72.571663,
        "Latitude": 23.066371
      },
      "LineRef": "201",
      "Order": 40,
      "nextDistance": 1375.794
    },
    {
      "StopPointName": "R.T.O Circle",
      "Location": {
        "Longitude": 72.581127,
        "Latitude": 23.068423
      },
      "LineRef": "201",
      "Order": 42
    }
  ],
  "1-U": [
    {
      "StopPointName": "New Cloth Market",
      "Location": {
        "Longitude": 72.598915,
        "Latitude": 23.01886
      },
      "LineRef": "1-U",
      "Order": 2,
      "nextDistance": 222.853
    },
    {
      "StopPointName": "Mahipatram Ashram",
      "Location": {
        "Longitude": 72.597131,
        "Latitude": 23.017741
      },
      "LineRef": "1-U",
      "Order": 3,
      "nextDistance": 333.87
    },
    {
      "StopPointName": "Raipur Darwaja",
      "Location": {
        "Longitude": 72.594003,
        "Latitude": 23.01699
      },
      "LineRef": "1-U",
      "Order": 4,
      "nextDistance": 243.17
    },
    {
      "StopPointName": "Astodiya Darwaja",
      "Location": {
        "Longitude": 72.59165,
        "Latitude": 23.016723
      },
      "LineRef": "1-U",
      "Order": 5,
      "nextDistance": 394.203
    },
    {
      "StopPointName": "Astodiya Chakla",
      "Location": {
        "Longitude": 72.58869,
        "Latitude": 23.018495
      },
      "LineRef": "1-U",
      "Order": 6,
      "nextDistance": 316.382
    },
    {
      "StopPointName": "Sardar Bhavan (Gol Limda)",
      "Location": {
        "Longitude": 72.58602,
        "Latitude": 23.01977
      },
      "LineRef": "1-U",
      "Order": 7,
      "nextDistance": 342.37
    },
    {
      "StopPointName": "Khamasa",
      "Location": {
        "Longitude": 72.583295,
        "Latitude": 23.021433
      },
      "LineRef": "1-U",
      "Order": 8,
      "nextDistance": 264.59
    },
    {
      "StopPointName": "Tilakbag",
      "Location": {
        "Longitude": 72.580751,
        "Latitude": 23.021846
      },
      "LineRef": "1-U",
      "Order": 9,
      "nextDistance": 886.047
    },
    {
      "StopPointName": "Hariharanand Ashram",
      "Location": {
        "Longitude": 72.572143,
        "Latitude": 23.022435
      },
      "LineRef": "1-U",
      "Order": 10,
      "nextDistance": 1916.369
    },
    {
      "StopPointName": "Madalpur (Town Hall)",
      "Location": {
        "Longitude": 72.571248,
        "Latitude": 23.023498
      },
      "LineRef": "1-U",
      "Order": 11,
      "nextDistance": 2207.271
    },
    {
      "StopPointName": "Sanyas Ashram",
      "Location": {
        "Longitude": 72.571256,
        "Latitude": 23.024751
      },
      "LineRef": "1-U",
      "Order": 12,
      "nextDistance": 27.676
    },
    {
      "StopPointName": "Gandhigram Railway Station",
      "Location": {
        "Longitude": 72.571216,
        "Latitude": 23.024998
      },
      "LineRef": "1-U",
      "Order": 13,
      "nextDistance": 967.365
    },
    {
      "StopPointName": "Sardarbag",
      "Location": {
        "Longitude": 72.578645,
        "Latitude": 23.027351
      },
      "LineRef": "1-U",
      "Order": 14,
      "nextDistance": 394.651
    },
    {
      "StopPointName": "Vijalighar",
      "Location": {
        "Longitude": 72.581718,
        "Latitude": 23.026411
      },
      "LineRef": "1-U",
      "Order": 15,
      "nextDistance": 215.538
    },
    {
      "StopPointName": "Paththar Kuva",
      "Location": {
        "Longitude": 72.583823,
        "Latitude": 23.026395
      },
      "LineRef": "1-U",
      "Order": 16,
      "nextDistance": 455.328
    },
    {
      "StopPointName": "Krushna Cinema",
      "Location": {
        "Longitude": 72.587953,
        "Latitude": 23.027636
      },
      "LineRef": "1-U",
      "Order": 17,
      "nextDistance": 212.693
    },
    {
      "StopPointName": "Zaverivad",
      "Location": {
        "Longitude": 72.589975,
        "Latitude": 23.028043
      },
      "LineRef": "1-U",
      "Order": 18,
      "nextDistance": 369.332
    },
    {
      "StopPointName": "Haja Patelni Pol",
      "Location": {
        "Longitude": 72.593443,
        "Latitude": 23.02838
      },
      "LineRef": "1-U",
      "Order": 19,
      "nextDistance": 37.159
    },
    {
      "StopPointName": "Dhana Sutharni Pol",
      "Location": {
        "Longitude": 72.59375,
        "Latitude": 23.028266
      },
      "LineRef": "1-U",
      "Order": 20,
      "nextDistance": 213.366
    },
    {
      "StopPointName": "Zakariya Masjid",
      "Location": {
        "Longitude": 72.595738,
        "Latitude": 23.027766
      },
      "LineRef": "1-U",
      "Order": 21,
      "nextDistance": 296.798
    },
    {
      "StopPointName": "Revdi Bazar",
      "Location": {
        "Longitude": 72.5986,
        "Latitude": 23.027936
      },
      "LineRef": "1-U",
      "Order": 22,
      "nextDistance": 190.476
    },
    {
      "StopPointName": "Kalupur",
      "Location": {
        "Longitude": 72.600141,
        "Latitude": 23.028266
      },
      "LineRef": "1-U",
      "Order": 23,
      "nextDistance": 624.876
    },
    {
      "StopPointName": "Kalupur Terminus",
      "Location": {
        "Longitude": 72.600373,
        "Latitude": 23.030241
      },
      "LineRef": "1-U",
      "Order": 24,
      "nextDistance": 1886.113
    },
    {
      "StopPointName": "Sarangpur",
      "Location": {
        "Longitude": 72.598729,
        "Latitude": 23.022186
      },
      "LineRef": "1-U",
      "Order": 25
    }
  ],
  "105-D": [
    {
      "StopPointName": "Mecas",
      "Location": {
        "Longitude": 72.674341,
        "Latitude": 23.09627
      },
      "LineRef": "105-D",
      "Order": 2,
      "nextDistance": 539.083
    },
    {
      "StopPointName": "Shriniwas Anviro",
      "Location": {
        "Longitude": 72.670811,
        "Latitude": 23.099871
      },
      "LineRef": "105-D",
      "Order": 3,
      "nextDistance": 335.799
    },
    {
      "StopPointName": "Nana Chiloda",
      "Location": {
        "Longitude": 72.668206,
        "Latitude": 23.100463
      },
      "LineRef": "105-D",
      "Order": 4,
      "nextDistance": 377.655
    },
    {
      "StopPointName": "Ruby Coach Builders",
      "Location": {
        "Longitude": 72.665811,
        "Latitude": 23.098043
      },
      "LineRef": "105-D",
      "Order": 5,
      "nextDistance": 241.421
    },
    {
      "StopPointName": "Tulsi Park",
      "Location": {
        "Longitude": 72.66386,
        "Latitude": 23.096819
      },
      "LineRef": "105-D",
      "Order": 6,
      "nextDistance": 426.599
    },
    {
      "StopPointName": "Dwarkanagar",
      "Location": {
        "Longitude": 72.660275,
        "Latitude": 23.094856
      },
      "LineRef": "105-D",
      "Order": 7,
      "nextDistance": 221.929
    },
    {
      "StopPointName": "Awas park",
      "Location": {
        "Longitude": 72.658442,
        "Latitude": 23.093788
      },
      "LineRef": "105-D",
      "Order": 8,
      "nextDistance": 340.078
    },
    {
      "StopPointName": "Nobalnagar",
      "Location": {
        "Longitude": 72.655608,
        "Latitude": 23.092191
      },
      "LineRef": "105-D",
      "Order": 9,
      "nextDistance": 292.89
    },
    {
      "StopPointName": "Kotarpur Water Works",
      "Location": {
        "Longitude": 72.653156,
        "Latitude": 23.09083
      },
      "LineRef": "105-D",
      "Order": 10,
      "nextDistance": 257.691
    },
    {
      "StopPointName": "Kotarpur Approach",
      "Location": {
        "Longitude": 72.651035,
        "Latitude": 23.09063
      },
      "LineRef": "105-D",
      "Order": 11,
      "nextDistance": 1244.754
    },
    {
      "StopPointName": "Meldi Matanu Mandir",
      "Location": {
        "Longitude": 72.642313,
        "Latitude": 23.087408
      },
      "LineRef": "105-D",
      "Order": 12,
      "nextDistance": 394.61
    },
    {
      "StopPointName": "Bhadreshwar",
      "Location": {
        "Longitude": 72.63894,
        "Latitude": 23.086101
      },
      "LineRef": "105-D",
      "Order": 13,
      "nextDistance": 580.259
    },
    {
      "StopPointName": "Samarath Nagar",
      "Location": {
        "Longitude": 72.63327,
        "Latitude": 23.08595
      },
      "LineRef": "105-D",
      "Order": 14,
      "nextDistance": 400.953
    },
    {
      "StopPointName": "Indirabridge Approach",
      "Location": {
        "Longitude": 72.629361,
        "Latitude": 23.085851
      },
      "LineRef": "105-D",
      "Order": 15,
      "nextDistance": 482.089
    },
    {
      "StopPointName": "Hansol",
      "Location": {
        "Longitude": 72.624655,
        "Latitude": 23.08561
      },
      "LineRef": "105-D",
      "Order": 16,
      "nextDistance": 690.45
    },
    {
      "StopPointName": "Talavdi (Sadarnagar)",
      "Location": {
        "Longitude": 72.619821,
        "Latitude": 23.082792
      },
      "LineRef": "105-D",
      "Order": 17,
      "nextDistance": 213.265
    },
    {
      "StopPointName": "Sardarnagar Approach",
      "Location": {
        "Longitude": 72.617835,
        "Latitude": 23.082501
      },
      "LineRef": "105-D",
      "Order": 18,
      "nextDistance": 894.87
    },
    {
      "StopPointName": "Garnala (Camp)",
      "Location": {
        "Longitude": 72.61025,
        "Latitude": 23.078825
      },
      "LineRef": "105-D",
      "Order": 19,
      "nextDistance": 765.957
    },
    {
      "StopPointName": "Camp Sadar Bazar",
      "Location": {
        "Longitude": 72.605241,
        "Latitude": 23.07433
      },
      "LineRef": "105-D",
      "Order": 20,
      "nextDistance": 802.068
    },
    {
      "StopPointName": "Wireless Quarters (Camp)",
      "Location": {
        "Longitude": 72.603228,
        "Latitude": 23.071091
      },
      "LineRef": "105-D",
      "Order": 21,
      "nextDistance": 620.205
    },
    {
      "StopPointName": "Camp Hanuman",
      "Location": {
        "Longitude": 72.6005495,
        "Latitude": 23.066150833333335
      },
      "LineRef": "105-D",
      "Order": 22,
      "nextDistance": 323.998
    },
    {
      "StopPointName": "Telephone Exchange (A.C.B.Office)",
      "Location": {
        "Longitude": 72.598901,
        "Latitude": 23.063665
      },
      "LineRef": "105-D",
      "Order": 23,
      "nextDistance": 415.589
    },
    {
      "StopPointName": "Dufnala",
      "Location": {
        "Longitude": 72.595235,
        "Latitude": 23.06206
      },
      "LineRef": "105-D",
      "Order": 24,
      "nextDistance": 373.472
    },
    {
      "StopPointName": "Circuit House",
      "Location": {
        "Longitude": 72.592128,
        "Latitude": 23.060326
      },
      "LineRef": "105-D",
      "Order": 25,
      "nextDistance": 163.564
    },
    {
      "StopPointName": "Sardar Patel Smarak Bhavan",
      "Location": {
        "Longitude": 72.591026,
        "Latitude": 23.059313
      },
      "LineRef": "105-D",
      "Order": 26,
      "nextDistance": 362.352
    },
    {
      "StopPointName": "Shahibag Underbridge Approach",
      "Location": {
        "Longitude": 72.591165,
        "Latitude": 23.056055
      },
      "LineRef": "105-D",
      "Order": 27,
      "nextDistance": 520.383
    },
    {
      "StopPointName": "Shahibag Underbridge",
      "Location": {
        "Longitude": 72.590305,
        "Latitude": 23.051766
      },
      "LineRef": "105-D",
      "Order": 28,
      "nextDistance": 303.53
    },
    {
      "StopPointName": "Police Commissioner Office",
      "Location": {
        "Longitude": 72.589805,
        "Latitude": 23.049103
      },
      "LineRef": "105-D",
      "Order": 29,
      "nextDistance": 245.653
    },
    {
      "StopPointName": "Hirabag",
      "Location": {
        "Longitude": 72.589701,
        "Latitude": 23.046896
      },
      "LineRef": "105-D",
      "Order": 30,
      "nextDistance": 574.398
    },
    {
      "StopPointName": "Swaminarayan Mandir (Shahibag)",
      "Location": {
        "Longitude": 72.58957533333334,
        "Latitude": 23.0456155
      },
      "LineRef": "105-D",
      "Order": 31,
      "nextDistance": 1243.162
    },
    {
      "StopPointName": "Hathisingni Wadi",
      "Location": {
        "Longitude": 72.589486,
        "Latitude": 23.042493
      },
      "LineRef": "105-D",
      "Order": 32,
      "nextDistance": 331.684
    },
    {
      "StopPointName": "Delhi Darwaja (Rt.105 Stand)",
      "Location": {
        "Longitude": 72.58844,
        "Latitude": 23.039713
      },
      "LineRef": "105-D",
      "Order": 33,
      "nextDistance": 520.212
    },
    {
      "StopPointName": "Delhi Chakla",
      "Location": {
        "Longitude": 72.58691,
        "Latitude": 23.035448
      },
      "LineRef": "105-D",
      "Order": 34,
      "nextDistance": 182.701
    },
    {
      "StopPointName": "Rentiyawadi",
      "Location": {
        "Longitude": 72.585791,
        "Latitude": 23.034176
      },
      "LineRef": "105-D",
      "Order": 35,
      "nextDistance": 230.678
    },
    {
      "StopPointName": "Ahmedabad Gramya Jilla Nyayalay",
      "Location": {
        "Longitude": 72.584573,
        "Latitude": 23.032465
      },
      "LineRef": "105-D",
      "Order": 36,
      "nextDistance": 311.623
    },
    {
      "StopPointName": "Jansatta Karyalay",
      "Location": {
        "Longitude": 72.583018,
        "Latitude": 23.030113
      },
      "LineRef": "105-D",
      "Order": 37,
      "nextDistance": 273.484
    },
    {
      "StopPointName": "Dinbai Tower",
      "Location": {
        "Longitude": 72.581501,
        "Latitude": 23.02826
      },
      "LineRef": "105-D",
      "Order": 38,
      "nextDistance": 248.108
    },
    {
      "StopPointName": "Lal Darwaja",
      "Location": {
        "Longitude": 72.580856,
        "Latitude": 23.026426
      },
      "LineRef": "105-D",
      "Order": 39
    }
  ],
  "105-U": [
    {
      "StopPointName": "Dinbai Tower",
      "Location": {
        "Longitude": 72.581381,
        "Latitude": 23.028206
      },
      "LineRef": "105-U",
      "Order": 2,
      "nextDistance": 360.561
    },
    {
      "StopPointName": "Jansatta Karyalay",
      "Location": {
        "Longitude": 72.583185,
        "Latitude": 23.030511
      },
      "LineRef": "105-U",
      "Order": 3,
      "nextDistance": 288.486
    },
    {
      "StopPointName": "Ahmedabad Gramya Jilla Nyayalay",
      "Location": {
        "Longitude": 72.58455,
        "Latitude": 23.032603
      },
      "LineRef": "105-U",
      "Order": 4,
      "nextDistance": 228.107
    },
    {
      "StopPointName": "Rentiyawadi",
      "Location": {
        "Longitude": 72.585701,
        "Latitude": 23.03436
      },
      "LineRef": "105-U",
      "Order": 5,
      "nextDistance": 222.244
    },
    {
      "StopPointName": "Delhi Chakla",
      "Location": {
        "Longitude": 72.587115,
        "Latitude": 23.035895
      },
      "LineRef": "105-U",
      "Order": 6,
      "nextDistance": 761.276
    },
    {
      "StopPointName": "Delhi Darwaja (Rt.105 Stand)",
      "Location": {
        "Longitude": 72.588341,
        "Latitude": 23.03962
      },
      "LineRef": "105-U",
      "Order": 7,
      "nextDistance": 1171.699
    },
    {
      "StopPointName": "Hathisingni Wadi",
      "Location": {
        "Longitude": 72.589176,
        "Latitude": 23.042425
      },
      "LineRef": "105-U",
      "Order": 8,
      "nextDistance": 1351.34
    },
    {
      "StopPointName": "Swaminarayan Mandir (Shahibag)",
      "Location": {
        "Longitude": 72.589541,
        "Latitude": 23.045086
      },
      "LineRef": "105-U",
      "Order": 9,
      "nextDistance": 177.989
    },
    {
      "StopPointName": "Hirabag",
      "Location": {
        "Longitude": 72.589593,
        "Latitude": 23.046686
      },
      "LineRef": "105-U",
      "Order": 10,
      "nextDistance": 215.548
    },
    {
      "StopPointName": "Police Commissioner Office",
      "Location": {
        "Longitude": 72.58968,
        "Latitude": 23.048623
      },
      "LineRef": "105-U",
      "Order": 11,
      "nextDistance": 425.602
    },
    {
      "StopPointName": "Shahibag Underbridge",
      "Location": {
        "Longitude": 72.590366,
        "Latitude": 23.052375
      },
      "LineRef": "105-U",
      "Order": 12,
      "nextDistance": 441.878
    },
    {
      "StopPointName": "Shahibag Underbridge Approach",
      "Location": {
        "Longitude": 72.590986,
        "Latitude": 23.055865
      },
      "LineRef": "105-U",
      "Order": 13,
      "nextDistance": 387.533
    },
    {
      "StopPointName": "Sardar Patel Smarak Bhavan",
      "Location": {
        "Longitude": 72.590955,
        "Latitude": 23.059351
      },
      "LineRef": "105-U",
      "Order": 14,
      "nextDistance": 209.01
    },
    {
      "StopPointName": "Circuit House",
      "Location": {
        "Longitude": 72.592373,
        "Latitude": 23.060656
      },
      "LineRef": "105-U",
      "Order": 15,
      "nextDistance": 330.568
    },
    {
      "StopPointName": "Dufnala",
      "Location": {
        "Longitude": 72.595185,
        "Latitude": 23.062115
      },
      "LineRef": "105-U",
      "Order": 16,
      "nextDistance": 527.394
    },
    {
      "StopPointName": "Telephone Exchange (A.C.B.Office)",
      "Location": {
        "Longitude": 72.59949,
        "Latitude": 23.064523
      },
      "LineRef": "105-U",
      "Order": 17,
      "nextDistance": 275.717
    },
    {
      "StopPointName": "Camp Hanuman",
      "Location": {
        "Longitude": 72.600491,
        "Latitude": 23.06678
      },
      "LineRef": "105-U",
      "Order": 18,
      "nextDistance": 673.145
    },
    {
      "StopPointName": "Wireless Quarters (Camp)",
      "Location": {
        "Longitude": 72.603835,
        "Latitude": 23.071996
      },
      "LineRef": "105-U",
      "Order": 19,
      "nextDistance": 419.124
    },
    {
      "StopPointName": "Camp Sadar Bazar",
      "Location": {
        "Longitude": 72.605575,
        "Latitude": 23.074715
      },
      "LineRef": "105-U",
      "Order": 20,
      "nextDistance": 667.766
    },
    {
      "StopPointName": "Garnala (Camp)",
      "Location": {
        "Longitude": 72.610008,
        "Latitude": 23.078895
      },
      "LineRef": "105-U",
      "Order": 21,
      "nextDistance": 902.5
    },
    {
      "StopPointName": "Sardarnagar Approach",
      "Location": {
        "Longitude": 72.617716,
        "Latitude": 23.082636
      },
      "LineRef": "105-U",
      "Order": 22,
      "nextDistance": 317.232
    },
    {
      "StopPointName": "Talavdi (Sadarnagar)",
      "Location": {
        "Longitude": 72.6204,
        "Latitude": 23.083625
      },
      "LineRef": "105-U",
      "Order": 23,
      "nextDistance": 547.559
    },
    {
      "StopPointName": "Hansol",
      "Location": {
        "Longitude": 72.624581,
        "Latitude": 23.085691
      },
      "LineRef": "105-U",
      "Order": 24,
      "nextDistance": 637.056
    },
    {
      "StopPointName": "Indirabridge Approach",
      "Location": {
        "Longitude": 72.630663,
        "Latitude": 23.085991
      },
      "LineRef": "105-U",
      "Order": 25,
      "nextDistance": 307.196
    },
    {
      "StopPointName": "Samarath Nagar",
      "Location": {
        "Longitude": 72.633666,
        "Latitude": 23.086041
      },
      "LineRef": "105-U",
      "Order": 26,
      "nextDistance": 541.633
    },
    {
      "StopPointName": "Bhadreshwar",
      "Location": {
        "Longitude": 72.638958,
        "Latitude": 23.08621
      },
      "LineRef": "105-U",
      "Order": 27,
      "nextDistance": 392.094
    },
    {
      "StopPointName": "Meldi Matanu Mandir",
      "Location": {
        "Longitude": 72.642251,
        "Latitude": 23.087548
      },
      "LineRef": "105-U",
      "Order": 28,
      "nextDistance": 1254.666
    },
    {
      "StopPointName": "Kotarpur Approach",
      "Location": {
        "Longitude": 72.651221,
        "Latitude": 23.090755
      },
      "LineRef": "105-U",
      "Order": 29,
      "nextDistance": 242.784
    },
    {
      "StopPointName": "Kotarpur Water Works",
      "Location": {
        "Longitude": 72.653038,
        "Latitude": 23.09092
      },
      "LineRef": "105-U",
      "Order": 30,
      "nextDistance": 317.321
    },
    {
      "StopPointName": "Nobalnagar",
      "Location": {
        "Longitude": 72.655705,
        "Latitude": 23.092378
      },
      "LineRef": "105-U",
      "Order": 31,
      "nextDistance": 348.099
    },
    {
      "StopPointName": "Awas park",
      "Location": {
        "Longitude": 72.658376,
        "Latitude": 23.093889
      },
      "LineRef": "105-U",
      "Order": 32,
      "nextDistance": 265.887
    },
    {
      "StopPointName": "Dwarkanagar",
      "Location": {
        "Longitude": 72.66047,
        "Latitude": 23.095143
      },
      "LineRef": "105-U",
      "Order": 33,
      "nextDistance": 410.741
    },
    {
      "StopPointName": "Tulsi Park",
      "Location": {
        "Longitude": 72.663821,
        "Latitude": 23.096983
      },
      "LineRef": "105-U",
      "Order": 34,
      "nextDistance": 301.831
    },
    {
      "StopPointName": "Ruby Coach Builders",
      "Location": {
        "Longitude": 72.665981,
        "Latitude": 23.098333
      },
      "LineRef": "105-U",
      "Order": 35,
      "nextDistance": 403.5
    },
    {
      "StopPointName": "Nana Chiloda",
      "Location": {
        "Longitude": 72.66825766666666,
        "Latitude": 23.100874666666662
      },
      "LineRef": "105-U",
      "Order": 36,
      "nextDistance": 365.383
    },
    {
      "StopPointName": "Shriniwas Anviro",
      "Location": {
        "Longitude": 72.671403,
        "Latitude": 23.099471
      },
      "LineRef": "105-U",
      "Order": 37,
      "nextDistance": 466.651
    },
    {
      "StopPointName": "Mecas",
      "Location": {
        "Longitude": 72.674383,
        "Latitude": 23.096288
      },
      "LineRef": "105-U",
      "Order": 38,
      "nextDistance": 282.798
    },
    {
      "StopPointName": "Naroda Industrial Township",
      "Location": {
        "Longitude": 72.675936,
        "Latitude": 23.094222
      },
      "LineRef": "105-U",
      "Order": 39
    }
  ],
  "106-U": [
    {
      "StopPointName": "Julta Minara",
      "Location": {
        "Longitude": 72.599505,
        "Latitude": 23.024098
      },
      "LineRef": "106-U",
      "Order": 2,
      "nextDistance": 699.267
    },
    {
      "StopPointName": "Kalupur Terminus",
      "Location": {
        "Longitude": 72.599252,
        "Latitude": 23.030033
      },
      "LineRef": "106-U",
      "Order": 3,
      "nextDistance": 712.031
    },
    {
      "StopPointName": "Prem Darwaja",
      "Location": {
        "Longitude": 72.596563,
        "Latitude": 23.035823
      },
      "LineRef": "106-U",
      "Order": 4,
      "nextDistance": 333.529
    },
    {
      "StopPointName": "Dariyapur Darwaja",
      "Location": {
        "Longitude": 72.593976,
        "Latitude": 23.037433
      },
      "LineRef": "106-U",
      "Order": 5,
      "nextDistance": 396.743
    },
    {
      "StopPointName": "Madhupura",
      "Location": {
        "Longitude": 72.590148,
        "Latitude": 23.03751
      },
      "LineRef": "106-U",
      "Order": 6,
      "nextDistance": 749.839
    },
    {
      "StopPointName": "Delhi Darwaja (Rt.105 Stand)",
      "Location": {
        "Longitude": 72.588341,
        "Latitude": 23.03962
      },
      "LineRef": "106-U",
      "Order": 7,
      "nextDistance": 1171.699
    },
    {
      "StopPointName": "Hathisingni Wadi",
      "Location": {
        "Longitude": 72.589176,
        "Latitude": 23.042425
      },
      "LineRef": "106-U",
      "Order": 8,
      "nextDistance": 1569.04
    },
    {
      "StopPointName": "Maheshwari Seva Samiti",
      "Location": {
        "Longitude": 72.591513,
        "Latitude": 23.046381
      },
      "LineRef": "106-U",
      "Order": 9,
      "nextDistance": 838.618
    },
    {
      "StopPointName": "Mahapragnaji Bridge Approach",
      "Location": {
        "Longitude": 72.595318,
        "Latitude": 23.053036
      },
      "LineRef": "106-U",
      "Order": 10,
      "nextDistance": 267.903
    },
    {
      "StopPointName": "Rajasthan Hospital",
      "Location": {
        "Longitude": 72.596921,
        "Latitude": 23.05494
      },
      "LineRef": "106-U",
      "Order": 11,
      "nextDistance": 270.27
    },
    {
      "StopPointName": "Radha Kishan Mandir (Ghevar Complex)",
      "Location": {
        "Longitude": 72.598581,
        "Latitude": 23.056801
      },
      "LineRef": "106-U",
      "Order": 12,
      "nextDistance": 193.216
    },
    {
      "StopPointName": "Navroji Hall (Chandralok)",
      "Location": {
        "Longitude": 72.598201,
        "Latitude": 23.058438
      },
      "LineRef": "106-U",
      "Order": 13,
      "nextDistance": 640.149
    },
    {
      "StopPointName": "Dufnala",
      "Location": {
        "Longitude": 72.597421,
        "Latitude": 23.062136
      },
      "LineRef": "106-U",
      "Order": 14,
      "nextDistance": 420.52
    },
    {
      "StopPointName": "Telephone Exchange (A.C.B.Office)",
      "Location": {
        "Longitude": 72.59949,
        "Latitude": 23.064523
      },
      "LineRef": "106-U",
      "Order": 15,
      "nextDistance": 275.717
    },
    {
      "StopPointName": "Camp Hanuman",
      "Location": {
        "Longitude": 72.600491,
        "Latitude": 23.06678
      },
      "LineRef": "106-U",
      "Order": 16,
      "nextDistance": 673.145
    },
    {
      "StopPointName": "Wireless Quarters (Camp)",
      "Location": {
        "Longitude": 72.603835,
        "Latitude": 23.071996
      },
      "LineRef": "106-U",
      "Order": 17,
      "nextDistance": 419.124
    },
    {
      "StopPointName": "Camp Sadar Bazar",
      "Location": {
        "Longitude": 72.605575,
        "Latitude": 23.074715
      },
      "LineRef": "106-U",
      "Order": 18,
      "nextDistance": 667.766
    },
    {
      "StopPointName": "Garnala (Camp)",
      "Location": {
        "Longitude": 72.610008,
        "Latitude": 23.078895
      },
      "LineRef": "106-U",
      "Order": 19,
      "nextDistance": 902.5
    },
    {
      "StopPointName": "Sardarnagar Approach",
      "Location": {
        "Longitude": 72.617716,
        "Latitude": 23.082636
      },
      "LineRef": "106-U",
      "Order": 20,
      "nextDistance": 317.232
    },
    {
      "StopPointName": "Talavdi (Sadarnagar)",
      "Location": {
        "Longitude": 72.6204,
        "Latitude": 23.083625
      },
      "LineRef": "106-U",
      "Order": 21,
      "nextDistance": 547.559
    },
    {
      "StopPointName": "Hansol",
      "Location": {
        "Longitude": 72.624581,
        "Latitude": 23.085691
      },
      "LineRef": "106-U",
      "Order": 22,
      "nextDistance": 637.056
    },
    {
      "StopPointName": "Indirabridge Approach",
      "Location": {
        "Longitude": 72.630663,
        "Latitude": 23.085991
      },
      "LineRef": "106-U",
      "Order": 23,
      "nextDistance": 307.196
    },
    {
      "StopPointName": "Samarath Nagar",
      "Location": {
        "Longitude": 72.633666,
        "Latitude": 23.086041
      },
      "LineRef": "106-U",
      "Order": 24,
      "nextDistance": 541.633
    },
    {
      "StopPointName": "Bhadreshwar",
      "Location": {
        "Longitude": 72.638958,
        "Latitude": 23.08621
      },
      "LineRef": "106-U",
      "Order": 25,
      "nextDistance": 422.481
    },
    {
      "StopPointName": "Jogni Matanu Mandir",
      "Location": {
        "Longitude": 72.642445,
        "Latitude": 23.087756
      },
      "LineRef": "106-U",
      "Order": 26,
      "nextDistance": 1224.279
    },
    {
      "StopPointName": "Kotarpur Approach",
      "Location": {
        "Longitude": 72.651221,
        "Latitude": 23.090755
      },
      "LineRef": "106-U",
      "Order": 27,
      "nextDistance": 270.735
    },
    {
      "StopPointName": "Subhashnagar",
      "Location": {
        "Longitude": 72.650245,
        "Latitude": 23.089268
      },
      "LineRef": "106-U",
      "Order": 28,
      "nextDistance": 519.984
    },
    {
      "StopPointName": "I.T.I. Approach",
      "Location": {
        "Longitude": 72.647776,
        "Latitude": 23.08612
      },
      "LineRef": "106-U",
      "Order": 29,
      "nextDistance": 316.66
    },
    {
      "StopPointName": "Krishna Park",
      "Location": {
        "Longitude": 72.649696,
        "Latitude": 23.083923
      },
      "LineRef": "106-U",
      "Order": 30,
      "nextDistance": 196.355
    },
    {
      "StopPointName": "I.T.I. Railway Underbridge",
      "Location": {
        "Longitude": 72.650571,
        "Latitude": 23.082361
      },
      "LineRef": "106-U",
      "Order": 31,
      "nextDistance": 642.581
    },
    {
      "StopPointName": "Galaxy Cinema",
      "Location": {
        "Longitude": 72.653933,
        "Latitude": 23.077758
      },
      "LineRef": "106-U",
      "Order": 32
    }
  ],
  "107-D": [
    {
      "StopPointName": "Kamdar Medan",
      "Location": {
        "Longitude": 72.605328,
        "Latitude": 23.02052
      },
      "LineRef": "107-D",
      "Order": 2,
      "nextDistance": 332.432
    },
    {
      "StopPointName": "Hathi Khai",
      "Location": {
        "Longitude": 72.608518,
        "Latitude": 23.021031
      },
      "LineRef": "107-D",
      "Order": 3,
      "nextDistance": 151.627
    },
    {
      "StopPointName": "Bombay Housing Police Line",
      "Location": {
        "Longitude": 72.609945,
        "Latitude": 23.02138
      },
      "LineRef": "107-D",
      "Order": 4,
      "nextDistance": 369.541
    },
    {
      "StopPointName": "Patel Mills",
      "Location": {
        "Longitude": 72.613465,
        "Latitude": 23.022115
      },
      "LineRef": "107-D",
      "Order": 5,
      "nextDistance": 271.325
    },
    {
      "StopPointName": "Marsdon Mills",
      "Location": {
        "Longitude": 72.616115,
        "Latitude": 23.022213
      },
      "LineRef": "107-D",
      "Order": 6,
      "nextDistance": 250.614
    },
    {
      "StopPointName": "Ganjifarak Mills",
      "Location": {
        "Longitude": 72.618563,
        "Latitude": 23.022263
      },
      "LineRef": "107-D",
      "Order": 7,
      "nextDistance": 305.834
    },
    {
      "StopPointName": "Rakhiyal Char Rasta",
      "Location": {
        "Longitude": 72.621521,
        "Latitude": 23.022045
      },
      "LineRef": "107-D",
      "Order": 8,
      "nextDistance": 598.198
    },
    {
      "StopPointName": "Anant Mills",
      "Location": {
        "Longitude": 72.627066,
        "Latitude": 23.020443
      },
      "LineRef": "107-D",
      "Order": 9,
      "nextDistance": 242.957
    },
    {
      "StopPointName": "Soma Textile (National Mills)",
      "Location": {
        "Longitude": 72.629405,
        "Latitude": 23.020225
      },
      "LineRef": "107-D",
      "Order": 10,
      "nextDistance": 379.958
    },
    {
      "StopPointName": "Ajit Mills",
      "Location": {
        "Longitude": 72.633115,
        "Latitude": 23.020173
      },
      "LineRef": "107-D",
      "Order": 11,
      "nextDistance": 237.046
    },
    {
      "StopPointName": "Sonini Chali",
      "Location": {
        "Longitude": 72.635425,
        "Latitude": 23.02018
      },
      "LineRef": "107-D",
      "Order": 12,
      "nextDistance": 728.221
    },
    {
      "StopPointName": "Grid Station (C.M.C.)",
      "Location": {
        "Longitude": 72.64245,
        "Latitude": 23.021211
      },
      "LineRef": "107-D",
      "Order": 13,
      "nextDistance": 380.57
    },
    {
      "StopPointName": "Quick Metal Industries",
      "Location": {
        "Longitude": 72.646121,
        "Latitude": 23.021755
      },
      "LineRef": "107-D",
      "Order": 14,
      "nextDistance": 319.683
    },
    {
      "StopPointName": "Rabari Colony",
      "Location": {
        "Longitude": 72.649197,
        "Latitude": 23.022211
      },
      "LineRef": "107-D",
      "Order": 15,
      "nextDistance": 400.568
    },
    {
      "StopPointName": "Bhikshuk Gruh",
      "Location": {
        "Longitude": 72.653061,
        "Latitude": 23.022786
      },
      "LineRef": "107-D",
      "Order": 16,
      "nextDistance": 225.229
    },
    {
      "StopPointName": "Vallabh Nagar",
      "Location": {
        "Longitude": 72.655236,
        "Latitude": 23.023096
      },
      "LineRef": "107-D",
      "Order": 17,
      "nextDistance": 404.837
    },
    {
      "StopPointName": "Chhotalal ni Chali",
      "Location": {
        "Longitude": 72.659145,
        "Latitude": 23.023655
      },
      "LineRef": "107-D",
      "Order": 18,
      "nextDistance": 463.111
    },
    {
      "StopPointName": "Odhav Gam Approach",
      "Location": {
        "Longitude": 72.663615,
        "Latitude": 23.024305
      },
      "LineRef": "107-D",
      "Order": 19,
      "nextDistance": 477.584
    },
    {
      "StopPointName": "Mahakalimata Nu Mndir",
      "Location": {
        "Longitude": 72.662737,
        "Latitude": 23.028278
      },
      "LineRef": "107-D",
      "Order": 20,
      "nextDistance": 320.534
    },
    {
      "StopPointName": "Janatanagar (Manmohanpark)",
      "Location": {
        "Longitude": 72.662525,
        "Latitude": 23.031162
      },
      "LineRef": "107-D",
      "Order": 21,
      "nextDistance": 121.276
    },
    {
      "StopPointName": "Manmohan Park",
      "Location": {
        "Longitude": 72.662373,
        "Latitude": 23.03224
      },
      "LineRef": "107-D",
      "Order": 22,
      "nextDistance": 482.243
    },
    {
      "StopPointName": "Ashwamegh Society (Manmohan)",
      "Location": {
        "Longitude": 72.66196,
        "Latitude": 23.03656
      },
      "LineRef": "107-D",
      "Order": 23,
      "nextDistance": 242.873
    },
    {
      "StopPointName": "Har Har Gange Flats",
      "Location": {
        "Longitude": 72.661773,
        "Latitude": 23.03874
      },
      "LineRef": "107-D",
      "Order": 24,
      "nextDistance": 370.166
    },
    {
      "StopPointName": "Khodiyar Mandir (Nikol)",
      "Location": {
        "Longitude": 72.663101,
        "Latitude": 23.041646
      },
      "LineRef": "107-D",
      "Order": 25,
      "nextDistance": 285.824
    },
    {
      "StopPointName": "Jayshukan Apartments",
      "Location": {
        "Longitude": 72.66323,
        "Latitude": 23.044211
      },
      "LineRef": "107-D",
      "Order": 26,
      "nextDistance": 214.625
    },
    {
      "StopPointName": "Uma Vidyalay",
      "Location": {
        "Longitude": 72.663263,
        "Latitude": 23.046143
      },
      "LineRef": "107-D",
      "Order": 27,
      "nextDistance": 289.185
    },
    {
      "StopPointName": "Krishna Vihar Society",
      "Location": {
        "Longitude": 72.66345,
        "Latitude": 23.048731
      },
      "LineRef": "107-D",
      "Order": 28,
      "nextDistance": 196.436
    },
    {
      "StopPointName": "Shukan Bunglows",
      "Location": {
        "Longitude": 72.663696,
        "Latitude": 23.050485
      },
      "LineRef": "107-D",
      "Order": 29,
      "nextDistance": 160.121
    },
    {
      "StopPointName": "Saurashtra Patel Samajni Wadi",
      "Location": {
        "Longitude": 72.665136,
        "Latitude": 23.050573
      },
      "LineRef": "107-D",
      "Order": 30,
      "nextDistance": 179.796
    },
    {
      "StopPointName": "Shakuntal Bunglows",
      "Location": {
        "Longitude": 72.666881,
        "Latitude": 23.050381
      },
      "LineRef": "107-D",
      "Order": 31,
      "nextDistance": 254.642
    },
    {
      "StopPointName": "Vaikunth Bunglows",
      "Location": {
        "Longitude": 72.669351,
        "Latitude": 23.050103
      },
      "LineRef": "107-D",
      "Order": 32,
      "nextDistance": 443.986
    },
    {
      "StopPointName": "Dynasty Restaurant",
      "Location": {
        "Longitude": 72.67055,
        "Latitude": 23.053406
      },
      "LineRef": "107-D",
      "Order": 33,
      "nextDistance": 331.314
    },
    {
      "StopPointName": "Tirthbhumi Residency",
      "Location": {
        "Longitude": 72.67106,
        "Latitude": 23.056348
      },
      "LineRef": "107-D",
      "Order": 34,
      "nextDistance": 222.609
    },
    {
      "StopPointName": "Akshardham Residency",
      "Location": {
        "Longitude": 72.671343,
        "Latitude": 23.05832
      },
      "LineRef": "107-D",
      "Order": 35,
      "nextDistance": 237.176
    },
    {
      "StopPointName": "Shyam Villa-2",
      "Location": {
        "Longitude": 72.671236,
        "Latitude": 23.06044
      },
      "LineRef": "107-D",
      "Order": 36,
      "nextDistance": 374.227
    },
    {
      "StopPointName": "Shubham Galaxy",
      "Location": {
        "Longitude": 72.671446,
        "Latitude": 23.063801
      },
      "LineRef": "107-D",
      "Order": 37,
      "nextDistance": 317.778
    },
    {
      "StopPointName": "Paras Galaxy",
      "Location": {
        "Longitude": 72.671971,
        "Latitude": 23.066621
      },
      "LineRef": "107-D",
      "Order": 38,
      "nextDistance": 395.7
    },
    {
      "StopPointName": "Haridarshan Char Rasta",
      "Location": {
        "Longitude": 72.672899,
        "Latitude": 23.069728
      },
      "LineRef": "107-D",
      "Order": 39
    }
  ],
  "109-D": [
    {
      "StopPointName": "Zundal Bus Stand",
      "Location": {
        "Longitude": 72.585811,
        "Latitude": 23.133471
      },
      "LineRef": "109-D",
      "Order": 11,
      "nextDistance": 957.088
    },
    {
      "StopPointName": "S.P.Ring Road (Zundal)",
      "Location": {
        "Longitude": 72.585035,
        "Latitude": 23.130115
      },
      "LineRef": "109-D",
      "Order": 12,
      "nextDistance": 556.423
    },
    {
      "StopPointName": "Balbindar Auto",
      "Location": {
        "Longitude": 72.583505,
        "Latitude": 23.125341
      },
      "LineRef": "109-D",
      "Order": 13,
      "nextDistance": 275.693
    },
    {
      "StopPointName": "Suprat Society",
      "Location": {
        "Longitude": 72.582918,
        "Latitude": 23.122921
      },
      "LineRef": "109-D",
      "Order": 14,
      "nextDistance": 34.26
    },
    {
      "StopPointName": "Gokul Dham",
      "Location": {
        "Longitude": 72.582823,
        "Latitude": 23.122625
      },
      "LineRef": "109-D",
      "Order": 15,
      "nextDistance": 285.053
    },
    {
      "StopPointName": "Siddhi Complex",
      "Location": {
        "Longitude": 72.582281,
        "Latitude": 23.120109
      },
      "LineRef": "109-D",
      "Order": 16,
      "nextDistance": 57.121
    },
    {
      "StopPointName": "Satyamev Hospital",
      "Location": {
        "Longitude": 72.582231,
        "Latitude": 23.119598
      },
      "LineRef": "109-D",
      "Order": 17,
      "nextDistance": 387.99
    },
    {
      "StopPointName": "Chandkheda Gam",
      "Location": {
        "Longitude": 72.582871,
        "Latitude": 23.116276
      },
      "LineRef": "109-D",
      "Order": 18,
      "nextDistance": 606.732
    },
    {
      "StopPointName": "Shivshakti Nagar (Chandkheda)",
      "Location": {
        "Longitude": 72.584431,
        "Latitude": 23.111006
      },
      "LineRef": "109-D",
      "Order": 19,
      "nextDistance": 277.048
    },
    {
      "StopPointName": "Santokba Hospital",
      "Location": {
        "Longitude": 72.585635,
        "Latitude": 23.109215
      },
      "LineRef": "109-D",
      "Order": 20,
      "nextDistance": 346.757
    },
    {
      "StopPointName": "Sahajanand Bunglows (Chandkheda)",
      "Location": {
        "Longitude": 72.589026,
        "Latitude": 23.109193
      },
      "LineRef": "109-D",
      "Order": 21,
      "nextDistance": 197.225
    },
    {
      "StopPointName": "Sakar School",
      "Location": {
        "Longitude": 72.590956,
        "Latitude": 23.109228
      },
      "LineRef": "109-D",
      "Order": 22,
      "nextDistance": 187.413
    },
    {
      "StopPointName": "Swagat Bunglows",
      "Location": {
        "Longitude": 72.592783,
        "Latitude": 23.109288
      },
      "LineRef": "109-D",
      "Order": 23,
      "nextDistance": 297.19
    },
    {
      "StopPointName": "Shitiratna Bunglows",
      "Location": {
        "Longitude": 72.595668,
        "Latitude": 23.10902
      },
      "LineRef": "109-D",
      "Order": 24,
      "nextDistance": 310.942
    },
    {
      "StopPointName": "Sarkari Engg. College",
      "Location": {
        "Longitude": 72.5971,
        "Latitude": 23.106675
      },
      "LineRef": "109-D",
      "Order": 25,
      "nextDistance": 308.796
    },
    {
      "StopPointName": "Ashok Vihar",
      "Location": {
        "Longitude": 72.598693,
        "Latitude": 23.10658
      },
      "LineRef": "109-D",
      "Order": 26,
      "nextDistance": 178.065
    },
    {
      "StopPointName": "Visamo Society",
      "Location": {
        "Longitude": 72.600003,
        "Latitude": 23.107635
      },
      "LineRef": "109-D",
      "Order": 27,
      "nextDistance": 662.722
    },
    {
      "StopPointName": "Chandkheda Fire Station",
      "Location": {
        "Longitude": 72.604895,
        "Latitude": 23.111538
      },
      "LineRef": "109-D",
      "Order": 28,
      "nextDistance": 186.054
    },
    {
      "StopPointName": "Shrushti Arcade",
      "Location": {
        "Longitude": 72.605818,
        "Latitude": 23.110505
      },
      "LineRef": "109-D",
      "Order": 29,
      "nextDistance": 265.981
    },
    {
      "StopPointName": "Narnarayan Party Plot",
      "Location": {
        "Longitude": 72.604705,
        "Latitude": 23.108345
      },
      "LineRef": "109-D",
      "Order": 30,
      "nextDistance": 153.058
    },
    {
      "StopPointName": "Maruti Nandan-1",
      "Location": {
        "Longitude": 72.6041,
        "Latitude": 23.107086
      },
      "LineRef": "109-D",
      "Order": 31,
      "nextDistance": 310.096
    },
    {
      "StopPointName": "Motera Gam",
      "Location": {
        "Longitude": 72.602821,
        "Latitude": 23.104558
      },
      "LineRef": "109-D",
      "Order": 32,
      "nextDistance": 359.058
    },
    {
      "StopPointName": "Shubham Society",
      "Location": {
        "Longitude": 72.604886,
        "Latitude": 23.103265
      },
      "LineRef": "109-D",
      "Order": 33,
      "nextDistance": 187.454
    },
    {
      "StopPointName": "Sai Sneh Residency",
      "Location": {
        "Longitude": 72.6067,
        "Latitude": 23.10313
      },
      "LineRef": "109-D",
      "Order": 34,
      "nextDistance": 383.468
    },
    {
      "StopPointName": "Sharan Sapphire",
      "Location": {
        "Longitude": 72.609326,
        "Latitude": 23.101073
      },
      "LineRef": "109-D",
      "Order": 35,
      "nextDistance": 441.46
    },
    {
      "StopPointName": "Koteshwar Mahadev Mandir",
      "Location": {
        "Longitude": 72.6121,
        "Latitude": 23.098153
      },
      "LineRef": "109-D",
      "Order": 36,
      "nextDistance": 202.561
    },
    {
      "StopPointName": "Koteshwar Gam",
      "Location": {
        "Longitude": 72.613923,
        "Latitude": 23.09772
      },
      "LineRef": "109-D",
      "Order": 37,
      "nextDistance": 472.459
    },
    {
      "StopPointName": "Dev Trankul",
      "Location": {
        "Longitude": 72.61538,
        "Latitude": 23.101553
      },
      "LineRef": "109-D",
      "Order": 38,
      "nextDistance": 183.181
    },
    {
      "StopPointName": "Sangath Skys",
      "Location": {
        "Longitude": 72.616211,
        "Latitude": 23.103011
      },
      "LineRef": "109-D",
      "Order": 39,
      "nextDistance": 355.175
    },
    {
      "StopPointName": "Koteshwar Cross Road",
      "Location": {
        "Longitude": 72.61876,
        "Latitude": 23.10514
      },
      "LineRef": "109-D",
      "Order": 40,
      "nextDistance": 281.869
    },
    {
      "StopPointName": "Ravi Farm",
      "Location": {
        "Longitude": 72.621003,
        "Latitude": 23.106611
      },
      "LineRef": "109-D",
      "Order": 41,
      "nextDistance": 829.129
    },
    {
      "StopPointName": "Torrent Farma.",
      "Location": {
        "Longitude": 72.628813,
        "Latitude": 23.105085
      },
      "LineRef": "109-D",
      "Order": 42,
      "nextDistance": 154.058
    },
    {
      "StopPointName": "Shrinath Farm",
      "Location": {
        "Longitude": 72.63024,
        "Latitude": 23.104855
      },
      "LineRef": "109-D",
      "Order": 43,
      "nextDistance": 501.575
    },
    {
      "StopPointName": "Kanoriya Hospital",
      "Location": {
        "Longitude": 72.62992,
        "Latitude": 23.10036
      },
      "LineRef": "109-D",
      "Order": 44,
      "nextDistance": 236.542
    },
    {
      "StopPointName": "Bhat Gam",
      "Location": {
        "Longitude": 72.629908,
        "Latitude": 23.098233
      },
      "LineRef": "109-D",
      "Order": 45,
      "nextDistance": 198.716
    },
    {
      "StopPointName": "Mother Dairy",
      "Location": {
        "Longitude": 72.629928,
        "Latitude": 23.096446
      },
      "LineRef": "109-D",
      "Order": 46,
      "nextDistance": 1209.042
    },
    {
      "StopPointName": "Indirabridge Approach",
      "Location": {
        "Longitude": 72.630663,
        "Latitude": 23.085991
      },
      "LineRef": "109-D",
      "Order": 47,
      "nextDistance": 307.196
    },
    {
      "StopPointName": "Samarath Nagar",
      "Location": {
        "Longitude": 72.633666,
        "Latitude": 23.086041
      },
      "LineRef": "109-D",
      "Order": 48,
      "nextDistance": 541.633
    },
    {
      "StopPointName": "Bhadreshwar",
      "Location": {
        "Longitude": 72.638958,
        "Latitude": 23.08621
      },
      "LineRef": "109-D",
      "Order": 49,
      "nextDistance": 422.481
    },
    {
      "StopPointName": "Jogni Matanu Mandir",
      "Location": {
        "Longitude": 72.642445,
        "Latitude": 23.087756
      },
      "LineRef": "109-D",
      "Order": 50,
      "nextDistance": 1224.279
    },
    {
      "StopPointName": "Kotarpur Approach",
      "Location": {
        "Longitude": 72.651221,
        "Latitude": 23.090755
      },
      "LineRef": "109-D",
      "Order": 51,
      "nextDistance": 270.735
    },
    {
      "StopPointName": "Subhashnagar",
      "Location": {
        "Longitude": 72.650245,
        "Latitude": 23.089268
      },
      "LineRef": "109-D",
      "Order": 52,
      "nextDistance": 519.984
    },
    {
      "StopPointName": "I.T.I. Approach",
      "Location": {
        "Longitude": 72.647776,
        "Latitude": 23.08612
      },
      "LineRef": "109-D",
      "Order": 53,
      "nextDistance": 316.66
    },
    {
      "StopPointName": "Krishna Park",
      "Location": {
        "Longitude": 72.649696,
        "Latitude": 23.083923
      },
      "LineRef": "109-D",
      "Order": 54,
      "nextDistance": 196.355
    },
    {
      "StopPointName": "I.T.I. Railway Underbridge",
      "Location": {
        "Longitude": 72.650571,
        "Latitude": 23.082361
      },
      "LineRef": "109-D",
      "Order": 55,
      "nextDistance": 642.581
    },
    {
      "StopPointName": "Galaxy Cinema",
      "Location": {
        "Longitude": 72.653933,
        "Latitude": 23.077758
      },
      "LineRef": "109-D",
      "Order": 56,
      "nextDistance": 179.284
    },
    {
      "StopPointName": "Naroda",
      "Location": {
        "Longitude": 72.65576,
        "Latitude": 23.077182
      },
      "LineRef": "109-D",
      "Order": 57
    }
  ],
  "109-U": [
    {
      "StopPointName": "Shrinath Farm",
      "Location": {
        "Longitude": 72.629986,
        "Latitude": 23.104613
      },
      "LineRef": "109-U",
      "Order": 15,
      "nextDistance": 240.27
    },
    {
      "StopPointName": "Torrent Farma.",
      "Location": {
        "Longitude": 72.628138,
        "Latitude": 23.105086
      },
      "LineRef": "109-U",
      "Order": 16,
      "nextDistance": 761.873
    },
    {
      "StopPointName": "Ravi Farm",
      "Location": {
        "Longitude": 72.620995,
        "Latitude": 23.106586
      },
      "LineRef": "109-U",
      "Order": 17,
      "nextDistance": 300.362
    },
    {
      "StopPointName": "Koteshwar Cross Road",
      "Location": {
        "Longitude": 72.618596,
        "Latitude": 23.105028
      },
      "LineRef": "109-U",
      "Order": 18,
      "nextDistance": 345.555
    },
    {
      "StopPointName": "Sangath Skys",
      "Location": {
        "Longitude": 72.61618,
        "Latitude": 23.10291
      },
      "LineRef": "109-U",
      "Order": 19,
      "nextDistance": 170.805
    },
    {
      "StopPointName": "Dev Trankul",
      "Location": {
        "Longitude": 72.61536,
        "Latitude": 23.101575
      },
      "LineRef": "109-U",
      "Order": 20,
      "nextDistance": 448.183
    },
    {
      "StopPointName": "Koteshwar Gam",
      "Location": {
        "Longitude": 72.614086,
        "Latitude": 23.097778
      },
      "LineRef": "109-U",
      "Order": 21,
      "nextDistance": 217.11
    },
    {
      "StopPointName": "Koteshwar Mahadev Mandir",
      "Location": {
        "Longitude": 72.612106,
        "Latitude": 23.097986
      },
      "LineRef": "109-U",
      "Order": 22,
      "nextDistance": 482.887
    },
    {
      "StopPointName": "Sharan Sapphire",
      "Location": {
        "Longitude": 72.609068,
        "Latitude": 23.10125
      },
      "LineRef": "109-U",
      "Order": 23,
      "nextDistance": 361.831
    },
    {
      "StopPointName": "Sai Sneh Residency",
      "Location": {
        "Longitude": 72.60661,
        "Latitude": 23.10307
      },
      "LineRef": "109-U",
      "Order": 24,
      "nextDistance": 452.281
    },
    {
      "StopPointName": "Shubham Society",
      "Location": {
        "Longitude": 72.602426,
        "Latitude": 23.103878
      },
      "LineRef": "109-U",
      "Order": 25,
      "nextDistance": 138.778
    },
    {
      "StopPointName": "Motera Gam",
      "Location": {
        "Longitude": 72.60292,
        "Latitude": 23.105018
      },
      "LineRef": "109-U",
      "Order": 26,
      "nextDistance": 280.754
    },
    {
      "StopPointName": "Maruti Nandan-1",
      "Location": {
        "Longitude": 72.603935,
        "Latitude": 23.10705
      },
      "LineRef": "109-U",
      "Order": 27,
      "nextDistance": 186.002
    },
    {
      "StopPointName": "Narnarayan Party Plot",
      "Location": {
        "Longitude": 72.604658,
        "Latitude": 23.108585
      },
      "LineRef": "109-U",
      "Order": 28,
      "nextDistance": 263.31
    },
    {
      "StopPointName": "Shrushti Arcade",
      "Location": {
        "Longitude": 72.605803,
        "Latitude": 23.110708
      },
      "LineRef": "109-U",
      "Order": 29,
      "nextDistance": 173.727
    },
    {
      "StopPointName": "Chandkheda Fire Station",
      "Location": {
        "Longitude": 72.604875,
        "Latitude": 23.111246
      },
      "LineRef": "109-U",
      "Order": 30,
      "nextDistance": 676.954
    },
    {
      "StopPointName": "Visamo Society",
      "Location": {
        "Longitude": 72.599871,
        "Latitude": 23.107261
      },
      "LineRef": "109-U",
      "Order": 31,
      "nextDistance": 149.032
    },
    {
      "StopPointName": "Ashok Vihar",
      "Location": {
        "Longitude": 72.59877,
        "Latitude": 23.106383
      },
      "LineRef": "109-U",
      "Order": 32,
      "nextDistance": 344.816
    },
    {
      "StopPointName": "Sarkari Engg. College",
      "Location": {
        "Longitude": 72.597056,
        "Latitude": 23.10658
      },
      "LineRef": "109-U",
      "Order": 33,
      "nextDistance": 283.459
    },
    {
      "StopPointName": "Shitiratna Bunglows",
      "Location": {
        "Longitude": 72.595915,
        "Latitude": 23.108763
      },
      "LineRef": "109-U",
      "Order": 34,
      "nextDistance": 313.012
    },
    {
      "StopPointName": "Swagat Bunglows",
      "Location": {
        "Longitude": 72.592998,
        "Latitude": 23.109165
      },
      "LineRef": "109-U",
      "Order": 35,
      "nextDistance": 208.964
    },
    {
      "StopPointName": "Sakar School",
      "Location": {
        "Longitude": 72.590953,
        "Latitude": 23.109111
      },
      "LineRef": "109-U",
      "Order": 36,
      "nextDistance": 191.095
    },
    {
      "StopPointName": "Sahajanand Bunglows (Chandkheda)",
      "Location": {
        "Longitude": 72.589088,
        "Latitude": 23.109066
      },
      "LineRef": "109-U",
      "Order": 37,
      "nextDistance": 356.883
    },
    {
      "StopPointName": "Santokba Hospital",
      "Location": {
        "Longitude": 72.585598,
        "Latitude": 23.109086
      },
      "LineRef": "109-U",
      "Order": 38,
      "nextDistance": 246.884
    },
    {
      "StopPointName": "Shivshakti Nagar (Chandkheda)",
      "Location": {
        "Longitude": 72.584356,
        "Latitude": 23.110545
      },
      "LineRef": "109-U",
      "Order": 39,
      "nextDistance": 1277.495
    },
    {
      "StopPointName": "Chandkheda Gam",
      "Location": {
        "Longitude": 72.582648,
        "Latitude": 23.116256
      },
      "LineRef": "109-U",
      "Order": 40,
      "nextDistance": 681.377
    },
    {
      "StopPointName": "Satyamev Hospital",
      "Location": {
        "Longitude": 72.581955,
        "Latitude": 23.11978
      },
      "LineRef": "109-U",
      "Order": 41,
      "nextDistance": 30.217
    },
    {
      "StopPointName": "Siddhi Complex",
      "Location": {
        "Longitude": 72.581972,
        "Latitude": 23.12005
      },
      "LineRef": "109-U",
      "Order": 42,
      "nextDistance": 275.141
    },
    {
      "StopPointName": "Gokul Dham",
      "Location": {
        "Longitude": 72.582508,
        "Latitude": 23.122475
      },
      "LineRef": "109-U",
      "Order": 43,
      "nextDistance": 12.417
    },
    {
      "StopPointName": "Suprat Society",
      "Location": {
        "Longitude": 72.582526,
        "Latitude": 23.122586
      },
      "LineRef": "109-U",
      "Order": 44,
      "nextDistance": 315.899
    },
    {
      "StopPointName": "Balbindar Auto",
      "Location": {
        "Longitude": 72.58322,
        "Latitude": 23.125355
      },
      "LineRef": "109-U",
      "Order": 45,
      "nextDistance": 536.563
    },
    {
      "StopPointName": "S.P.Ring Road (Zundal)",
      "Location": {
        "Longitude": 72.584603,
        "Latitude": 23.13001
      },
      "LineRef": "109-U",
      "Order": 46,
      "nextDistance": 397.456
    },
    {
      "StopPointName": "Zundal Bus Stand",
      "Location": {
        "Longitude": 72.58567,
        "Latitude": 23.133395
      },
      "LineRef": "109-U",
      "Order": 47,
      "nextDistance": 359.782
    },
    {
      "StopPointName": "Kalpataru Flats",
      "Location": {
        "Longitude": 72.586436,
        "Latitude": 23.136553
      },
      "LineRef": "109-U",
      "Order": 48,
      "nextDistance": 631.073
    },
    {
      "StopPointName": "Ambapur Bus Stand",
      "Location": {
        "Longitude": 72.587236,
        "Latitude": 23.142148
      },
      "LineRef": "109-U",
      "Order": 49,
      "nextDistance": 791.15
    },
    {
      "StopPointName": "Devdarshan Farm",
      "Location": {
        "Longitude": 72.587465,
        "Latitude": 23.14926
      },
      "LineRef": "109-U",
      "Order": 50,
      "nextDistance": 263.704
    },
    {
      "StopPointName": "Central Ware Housing Corporation",
      "Location": {
        "Longitude": 72.58756,
        "Latitude": 23.15163
      },
      "LineRef": "109-U",
      "Order": 51,
      "nextDistance": 947.827
    },
    {
      "StopPointName": "Swagat City",
      "Location": {
        "Longitude": 72.587831,
        "Latitude": 23.160146
      },
      "LineRef": "109-U",
      "Order": 52,
      "nextDistance": 822.368
    },
    {
      "StopPointName": "Adalaj S.T. Stand",
      "Location": {
        "Longitude": 72.586928,
        "Latitude": 23.16749
      },
      "LineRef": "109-U",
      "Order": 53,
      "nextDistance": 176.635
    },
    {
      "StopPointName": "Manekba Adhyapan Mandir",
      "Location": {
        "Longitude": 72.586023,
        "Latitude": 23.168795
      },
      "LineRef": "109-U",
      "Order": 54,
      "nextDistance": 494.394
    },
    {
      "StopPointName": "Adalaj-Gandhinagar Cross Road",
      "Location": {
        "Longitude": 72.581988,
        "Latitude": 23.171246
      },
      "LineRef": "109-U",
      "Order": 55,
      "nextDistance": 829.526
    },
    {
      "StopPointName": "Kalol Mehsana Cross Road",
      "Location": {
        "Longitude": 72.575261,
        "Latitude": 23.175416
      },
      "LineRef": "109-U",
      "Order": 56,
      "nextDistance": 141.785
    },
    {
      "StopPointName": "Trimandir",
      "Location": {
        "Longitude": 72.574047,
        "Latitude": 23.176041
      },
      "LineRef": "109-U",
      "Order": 57
    }
  ],
  "112-D": [
    {
      "StopPointName": "Rentiyawadi",
      "Location": {
        "Longitude": 72.585791,
        "Latitude": 23.034176
      },
      "LineRef": "112-D",
      "Order": 29,
      "nextDistance": 230.678
    },
    {
      "StopPointName": "Ahmedabad Gramya Jilla Nyayalay",
      "Location": {
        "Longitude": 72.584573,
        "Latitude": 23.032465
      },
      "LineRef": "112-D",
      "Order": 30,
      "nextDistance": 311.623
    },
    {
      "StopPointName": "Jansatta Karyalay",
      "Location": {
        "Longitude": 72.583018,
        "Latitude": 23.030113
      },
      "LineRef": "112-D",
      "Order": 31,
      "nextDistance": 273.484
    },
    {
      "StopPointName": "Dinbai Tower",
      "Location": {
        "Longitude": 72.581501,
        "Latitude": 23.02826
      },
      "LineRef": "112-D",
      "Order": 32,
      "nextDistance": 860.47
    },
    {
      "StopPointName": "Lal Darwaja",
      "Location": {
        "Longitude": 72.578744,
        "Latitude": 23.024982
      },
      "LineRef": "112-D",
      "Order": 33
    }
  ],
  "112-U": [
    {
      "StopPointName": "Dinbai Tower",
      "Location": {
        "Longitude": 72.581381,
        "Latitude": 23.028206
      },
      "LineRef": "112-U",
      "Order": 2,
      "nextDistance": 360.561
    },
    {
      "StopPointName": "Jansatta Karyalay",
      "Location": {
        "Longitude": 72.583185,
        "Latitude": 23.030511
      },
      "LineRef": "112-U",
      "Order": 3,
      "nextDistance": 288.486
    },
    {
      "StopPointName": "Ahmedabad Gramya Jilla Nyayalay",
      "Location": {
        "Longitude": 72.58455,
        "Latitude": 23.032603
      },
      "LineRef": "112-U",
      "Order": 4,
      "nextDistance": 228.107
    },
    {
      "StopPointName": "Rentiyawadi",
      "Location": {
        "Longitude": 72.585701,
        "Latitude": 23.03436
      },
      "LineRef": "112-U",
      "Order": 5,
      "nextDistance": 337.719
    },
    {
      "StopPointName": "Delhi Chakla",
      "Location": {
        "Longitude": 72.588166,
        "Latitude": 23.03603
      },
      "LineRef": "112-U",
      "Order": 6,
      "nextDistance": 219.765
    },
    {
      "StopPointName": "Kadiya Naka",
      "Location": {
        "Longitude": 72.590131,
        "Latitude": 23.0353
      },
      "LineRef": "112-U",
      "Order": 7,
      "nextDistance": 193.568
    },
    {
      "StopPointName": "Dariyapur Tower",
      "Location": {
        "Longitude": 72.591985,
        "Latitude": 23.03557
      },
      "LineRef": "112-U",
      "Order": 8,
      "nextDistance": 365.221
    },
    {
      "StopPointName": "Limdi (Prem Darwaja)",
      "Location": {
        "Longitude": 72.59545,
        "Latitude": 23.034903
      },
      "LineRef": "112-U",
      "Order": 9,
      "nextDistance": 392.937
    },
    {
      "StopPointName": "Prem Darwaja",
      "Location": {
        "Longitude": 72.597297,
        "Latitude": 23.036041
      },
      "LineRef": "112-U",
      "Order": 10,
      "nextDistance": 374.569
    },
    {
      "StopPointName": "Idga",
      "Location": {
        "Longitude": 72.596571,
        "Latitude": 23.03934
      },
      "LineRef": "112-U",
      "Order": 11,
      "nextDistance": 1043.225
    },
    {
      "StopPointName": "Giradharnagar",
      "Location": {
        "Longitude": 72.5982,
        "Latitude": 23.047411
      },
      "LineRef": "112-U",
      "Order": 12,
      "nextDistance": 260.156
    },
    {
      "StopPointName": "Baliya Limbdi",
      "Location": {
        "Longitude": 72.600731,
        "Latitude": 23.047186
      },
      "LineRef": "112-U",
      "Order": 13,
      "nextDistance": 431.483
    },
    {
      "StopPointName": "Civil Hospital",
      "Location": {
        "Longitude": 72.602518,
        "Latitude": 23.049418
      },
      "LineRef": "112-U",
      "Order": 14,
      "nextDistance": 430.125
    },
    {
      "StopPointName": "Cancer Hospital",
      "Location": {
        "Longitude": 72.606683,
        "Latitude": 23.048896
      },
      "LineRef": "112-U",
      "Order": 15,
      "nextDistance": 215.81
    },
    {
      "StopPointName": "Holi Chakla",
      "Location": {
        "Longitude": 72.608503,
        "Latitude": 23.049216
      },
      "LineRef": "112-U",
      "Order": 16,
      "nextDistance": 108.555
    },
    {
      "StopPointName": "M.L.A. Quarters",
      "Location": {
        "Longitude": 72.608826,
        "Latitude": 23.050141
      },
      "LineRef": "112-U",
      "Order": 17,
      "nextDistance": 274.259
    },
    {
      "StopPointName": "Mental Hospital Corner",
      "Location": {
        "Longitude": 72.610073,
        "Latitude": 23.05231
      },
      "LineRef": "112-U",
      "Order": 18,
      "nextDistance": 308.003
    },
    {
      "StopPointName": "Vicket",
      "Location": {
        "Longitude": 72.612766,
        "Latitude": 23.052461
      },
      "LineRef": "112-U",
      "Order": 19,
      "nextDistance": 423.329
    },
    {
      "StopPointName": "Tatanagar",
      "Location": {
        "Longitude": 72.616618,
        "Latitude": 23.053776
      },
      "LineRef": "112-U",
      "Order": 20,
      "nextDistance": 159.985
    },
    {
      "StopPointName": "Ratnasagar Society",
      "Location": {
        "Longitude": 72.618002,
        "Latitude": 23.054409
      },
      "LineRef": "112-U",
      "Order": 21,
      "nextDistance": 246.357
    },
    {
      "StopPointName": "Government Colony",
      "Location": {
        "Longitude": 72.617516,
        "Latitude": 23.056565
      },
      "LineRef": "112-U",
      "Order": 22,
      "nextDistance": 292.398
    },
    {
      "StopPointName": "Meghaninagar",
      "Location": {
        "Longitude": 72.617915,
        "Latitude": 23.059143
      },
      "LineRef": "112-U",
      "Order": 23,
      "nextDistance": 395.012
    },
    {
      "StopPointName": "Netajinagar",
      "Location": {
        "Longitude": 72.620693,
        "Latitude": 23.059291
      },
      "LineRef": "112-U",
      "Order": 24
    }
  ],
  "116-U": [
    {
      "StopPointName": "Baliya Limbdi",
      "Location": {
        "Longitude": 72.601455,
        "Latitude": 23.04756
      },
      "LineRef": "116-U",
      "Order": 2,
      "nextDistance": 449.064
    },
    {
      "StopPointName": "Giradharnagar",
      "Location": {
        "Longitude": 72.597516,
        "Latitude": 23.047335
      },
      "LineRef": "116-U",
      "Order": 3,
      "nextDistance": 1019.961
    },
    {
      "StopPointName": "Idga",
      "Location": {
        "Longitude": 72.59674,
        "Latitude": 23.038856
      },
      "LineRef": "116-U",
      "Order": 4,
      "nextDistance": 318.44
    },
    {
      "StopPointName": "Prem Darwaja",
      "Location": {
        "Longitude": 72.5974,
        "Latitude": 23.036065
      },
      "LineRef": "116-U",
      "Order": 5,
      "nextDistance": 838.542
    },
    {
      "StopPointName": "Kalupur Terminus",
      "Location": {
        "Longitude": 72.600373,
        "Latitude": 23.030241
      },
      "LineRef": "116-U",
      "Order": 6,
      "nextDistance": 778.654
    },
    {
      "StopPointName": "Sarangpur",
      "Location": {
        "Longitude": 72.5993,
        "Latitude": 23.023465
      },
      "LineRef": "116-U",
      "Order": 7,
      "nextDistance": 538.432
    },
    {
      "StopPointName": "New Cloth Market",
      "Location": {
        "Longitude": 72.598915,
        "Latitude": 23.01886
      },
      "LineRef": "116-U",
      "Order": 8,
      "nextDistance": 222.853
    },
    {
      "StopPointName": "Mahipatram Ashram",
      "Location": {
        "Longitude": 72.597131,
        "Latitude": 23.017741
      },
      "LineRef": "116-U",
      "Order": 9,
      "nextDistance": 333.87
    },
    {
      "StopPointName": "Raipur Darwaja",
      "Location": {
        "Longitude": 72.594003,
        "Latitude": 23.01699
      },
      "LineRef": "116-U",
      "Order": 10,
      "nextDistance": 342.192
    },
    {
      "StopPointName": "Astodiya Darwaja",
      "Location": {
        "Longitude": 72.591058,
        "Latitude": 23.016258
      },
      "LineRef": "116-U",
      "Order": 11,
      "nextDistance": 341.807
    },
    {
      "StopPointName": "S.T. Stand",
      "Location": {
        "Longitude": 72.591495,
        "Latitude": 23.01324
      },
      "LineRef": "116-U",
      "Order": 12,
      "nextDistance": 439.766
    },
    {
      "StopPointName": "Majur Gam",
      "Location": {
        "Longitude": 72.591678,
        "Latitude": 23.009298
      },
      "LineRef": "116-U",
      "Order": 13,
      "nextDistance": 320.235
    },
    {
      "StopPointName": "Bhulabhai Park",
      "Location": {
        "Longitude": 72.59113,
        "Latitude": 23.006485
      },
      "LineRef": "116-U",
      "Order": 14,
      "nextDistance": 430.431
    },
    {
      "StopPointName": "Parikshitlalnagar",
      "Location": {
        "Longitude": 72.588085,
        "Latitude": 23.004883
      },
      "LineRef": "116-U",
      "Order": 15,
      "nextDistance": 315.446
    },
    {
      "StopPointName": "Jay Jagat Society",
      "Location": {
        "Longitude": 72.585005,
        "Latitude": 23.004741
      },
      "LineRef": "116-U",
      "Order": 16,
      "nextDistance": 333.962
    },
    {
      "StopPointName": "Gurudwarani Chali",
      "Location": {
        "Longitude": 72.581741,
        "Latitude": 23.004686
      },
      "LineRef": "116-U",
      "Order": 17,
      "nextDistance": 280.894
    },
    {
      "StopPointName": "Maneknala Garnala",
      "Location": {
        "Longitude": 72.57943,
        "Latitude": 23.004328
      },
      "LineRef": "116-U",
      "Order": 18,
      "nextDistance": 279.099
    },
    {
      "StopPointName": "S.T.Workshop (Chandola)",
      "Location": {
        "Longitude": 72.579526,
        "Latitude": 23.001823
      },
      "LineRef": "116-U",
      "Order": 19,
      "nextDistance": 314.209
    },
    {
      "StopPointName": "Ganj Sahid Dargah",
      "Location": {
        "Longitude": 72.579488,
        "Latitude": 22.999008
      },
      "LineRef": "116-U",
      "Order": 20,
      "nextDistance": 333.767
    },
    {
      "StopPointName": "Dani Limda Road",
      "Location": {
        "Longitude": 72.579288,
        "Latitude": 22.996178
      },
      "LineRef": "116-U",
      "Order": 21,
      "nextDistance": 470.908
    },
    {
      "StopPointName": "Gam Kuwo",
      "Location": {
        "Longitude": 72.583461,
        "Latitude": 22.99603
      },
      "LineRef": "116-U",
      "Order": 22,
      "nextDistance": 180.262
    },
    {
      "StopPointName": "Dani Limda Gam",
      "Location": {
        "Longitude": 72.583908,
        "Latitude": 22.997178
      },
      "LineRef": "116-U",
      "Order": 23
    }
  ],
  "117/1-D": [
    {
      "StopPointName": "Kamod Gam",
      "Location": {
        "Longitude": 72.543048,
        "Latitude": 22.928878
      },
      "LineRef": "117/1-D",
      "Order": 20,
      "nextDistance": 469.091
    },
    {
      "StopPointName": "Indiranagar Approach",
      "Location": {
        "Longitude": 72.546228,
        "Latitude": 22.931898
      },
      "LineRef": "117/1-D",
      "Order": 21,
      "nextDistance": 489.831
    },
    {
      "StopPointName": "Krishna Beverage",
      "Location": {
        "Longitude": 72.54836,
        "Latitude": 22.935831
      },
      "LineRef": "117/1-D",
      "Order": 22,
      "nextDistance": 341.464
    },
    {
      "StopPointName": "Devraj Park",
      "Location": {
        "Longitude": 72.549833,
        "Latitude": 22.938586
      },
      "LineRef": "117/1-D",
      "Order": 23,
      "nextDistance": 247.777
    },
    {
      "StopPointName": "Vrundavan Farm",
      "Location": {
        "Longitude": 72.55092,
        "Latitude": 22.940576
      },
      "LineRef": "117/1-D",
      "Order": 24,
      "nextDistance": 318.056
    },
    {
      "StopPointName": "Bhairavnath Industries",
      "Location": {
        "Longitude": 72.551576,
        "Latitude": 22.943311
      },
      "LineRef": "117/1-D",
      "Order": 25,
      "nextDistance": 469.92
    },
    {
      "StopPointName": "R.K.Industries",
      "Location": {
        "Longitude": 72.552048,
        "Latitude": 22.947443
      },
      "LineRef": "117/1-D",
      "Order": 26,
      "nextDistance": 754.082
    },
    {
      "StopPointName": "Piplaj Gam",
      "Location": {
        "Longitude": 72.553548,
        "Latitude": 22.95408
      },
      "LineRef": "117/1-D",
      "Order": 27,
      "nextDistance": 115.567
    },
    {
      "StopPointName": "Anjali Synthetics",
      "Location": {
        "Longitude": 72.553776,
        "Latitude": 22.955098
      },
      "LineRef": "117/1-D",
      "Order": 28,
      "nextDistance": 310.431
    },
    {
      "StopPointName": "Poly Fabrics",
      "Location": {
        "Longitude": 72.554391,
        "Latitude": 22.95783
      },
      "LineRef": "117/1-D",
      "Order": 29,
      "nextDistance": 516.074
    },
    {
      "StopPointName": "Saijpur-Gopalpura Patiya(Chiripal Industries)",
      "Location": {
        "Longitude": 72.555648,
        "Latitude": 22.962321
      },
      "LineRef": "117/1-D",
      "Order": 30,
      "nextDistance": 636.217
    },
    {
      "StopPointName": "Popatkaka House",
      "Location": {
        "Longitude": 72.557918,
        "Latitude": 22.967648
      },
      "LineRef": "117/1-D",
      "Order": 31,
      "nextDistance": 318.154
    },
    {
      "StopPointName": "Ganeshnagar",
      "Location": {
        "Longitude": 72.559098,
        "Latitude": 22.970295
      },
      "LineRef": "117/1-D",
      "Order": 32,
      "nextDistance": 537.991
    },
    {
      "StopPointName": "Juna Octroinaka",
      "Location": {
        "Longitude": 72.561108,
        "Latitude": 22.974766
      },
      "LineRef": "117/1-D",
      "Order": 33,
      "nextDistance": 948.953
    },
    {
      "StopPointName": "Exel Industries",
      "Location": {
        "Longitude": 72.564836,
        "Latitude": 22.98258
      },
      "LineRef": "117/1-D",
      "Order": 34,
      "nextDistance": 411.761
    },
    {
      "StopPointName": "Suez Farm Approach",
      "Location": {
        "Longitude": 72.566555,
        "Latitude": 22.985928
      },
      "LineRef": "117/1-D",
      "Order": 35,
      "nextDistance": 680.293
    },
    {
      "StopPointName": "Suez Farm Office",
      "Location": {
        "Longitude": 72.569826,
        "Latitude": 22.991253
      },
      "LineRef": "117/1-D",
      "Order": 36,
      "nextDistance": 323.269
    },
    {
      "StopPointName": "Hawada",
      "Location": {
        "Longitude": 72.571401,
        "Latitude": 22.993773
      },
      "LineRef": "117/1-D",
      "Order": 37,
      "nextDistance": 104.094
    },
    {
      "StopPointName": "Suez Treatment Plant",
      "Location": {
        "Longitude": 72.571911,
        "Latitude": 22.994583
      },
      "LineRef": "117/1-D",
      "Order": 38,
      "nextDistance": 107.181
    },
    {
      "StopPointName": "National Cloth Mills",
      "Location": {
        "Longitude": 72.572488,
        "Latitude": 22.99539
      },
      "LineRef": "117/1-D",
      "Order": 39,
      "nextDistance": 244.278
    },
    {
      "StopPointName": "Saranagar",
      "Location": {
        "Longitude": 72.573676,
        "Latitude": 22.997295
      },
      "LineRef": "117/1-D",
      "Order": 40,
      "nextDistance": 275.562
    },
    {
      "StopPointName": "Grid Station",
      "Location": {
        "Longitude": 72.574966,
        "Latitude": 22.999471
      },
      "LineRef": "117/1-D",
      "Order": 41,
      "nextDistance": 228.584
    },
    {
      "StopPointName": "Chepirog Hospital",
      "Location": {
        "Longitude": 72.576113,
        "Latitude": 23.001235
      },
      "LineRef": "117/1-D",
      "Order": 42,
      "nextDistance": 192.717
    },
    {
      "StopPointName": "Pumpimg Station",
      "Location": {
        "Longitude": 72.577005,
        "Latitude": 23.002761
      },
      "LineRef": "117/1-D",
      "Order": 43,
      "nextDistance": 480.245
    },
    {
      "StopPointName": "Calico Mills",
      "Location": {
        "Longitude": 72.579586,
        "Latitude": 23.005778
      },
      "LineRef": "117/1-D",
      "Order": 44,
      "nextDistance": 337.6
    },
    {
      "StopPointName": "Jamalpur Darwaja",
      "Location": {
        "Longitude": 72.580571,
        "Latitude": 23.008671
      },
      "LineRef": "117/1-D",
      "Order": 45,
      "nextDistance": 341.426
    },
    {
      "StopPointName": "Transport House Office",
      "Location": {
        "Longitude": 72.582475,
        "Latitude": 23.010736
      },
      "LineRef": "117/1-D",
      "Order": 46,
      "nextDistance": 232.911
    },
    {
      "StopPointName": "Amts Staff Quarters",
      "Location": {
        "Longitude": 72.584628,
        "Latitude": 23.011398
      },
      "LineRef": "117/1-D",
      "Order": 47,
      "nextDistance": 401.759
    },
    {
      "StopPointName": "Municipal Chal (S.T.)",
      "Location": {
        "Longitude": 72.58834,
        "Latitude": 23.01257
      },
      "LineRef": "117/1-D",
      "Order": 48,
      "nextDistance": 390.169
    },
    {
      "StopPointName": "S.T. Stand",
      "Location": {
        "Longitude": 72.591714,
        "Latitude": 23.014171
      },
      "LineRef": "117/1-D",
      "Order": 49,
      "nextDistance": 395.769
    },
    {
      "StopPointName": "Astodiya Darwaja",
      "Location": {
        "Longitude": 72.593273,
        "Latitude": 23.01708
      },
      "LineRef": "117/1-D",
      "Order": 50,
      "nextDistance": 228.833
    },
    {
      "StopPointName": "Raipur Darwaja",
      "Location": {
        "Longitude": 72.595473,
        "Latitude": 23.017458
      },
      "LineRef": "117/1-D",
      "Order": 51,
      "nextDistance": 266.556
    },
    {
      "StopPointName": "Mahipatram Ashram",
      "Location": {
        "Longitude": 72.597851,
        "Latitude": 23.018296
      },
      "LineRef": "117/1-D",
      "Order": 52,
      "nextDistance": 182.963
    },
    {
      "StopPointName": "New Cloth Market",
      "Location": {
        "Longitude": 72.59909,
        "Latitude": 23.019433
      },
      "LineRef": "117/1-D",
      "Order": 53,
      "nextDistance": 312.216
    },
    {
      "StopPointName": "Sarangpur",
      "Location": {
        "Longitude": 72.598729,
        "Latitude": 23.022186
      },
      "LineRef": "117/1-D",
      "Order": 54,
      "nextDistance": 967.249
    },
    {
      "StopPointName": "Kalupur Terminus",
      "Location": {
        "Longitude": 72.599252,
        "Latitude": 23.030033
      },
      "LineRef": "117/1-D",
      "Order": 55
    }
  ],
  "117/1-U": [
    {
      "StopPointName": "Sarangpur",
      "Location": {
        "Longitude": 72.5993,
        "Latitude": 23.023465
      },
      "LineRef": "117/1-U",
      "Order": 2,
      "nextDistance": 538.432
    },
    {
      "StopPointName": "New Cloth Market",
      "Location": {
        "Longitude": 72.598915,
        "Latitude": 23.01886
      },
      "LineRef": "117/1-U",
      "Order": 3,
      "nextDistance": 222.853
    },
    {
      "StopPointName": "Mahipatram Ashram",
      "Location": {
        "Longitude": 72.597131,
        "Latitude": 23.017741
      },
      "LineRef": "117/1-U",
      "Order": 4,
      "nextDistance": 333.87
    },
    {
      "StopPointName": "Raipur Darwaja",
      "Location": {
        "Longitude": 72.594003,
        "Latitude": 23.01699
      },
      "LineRef": "117/1-U",
      "Order": 5,
      "nextDistance": 243.17
    },
    {
      "StopPointName": "Astodiya Darwaja",
      "Location": {
        "Longitude": 72.59165,
        "Latitude": 23.016723
      },
      "LineRef": "117/1-U",
      "Order": 6,
      "nextDistance": 317.563
    },
    {
      "StopPointName": "S.T. Stand",
      "Location": {
        "Longitude": 72.59128,
        "Latitude": 23.014339
      },
      "LineRef": "117/1-U",
      "Order": 7,
      "nextDistance": 378.021
    },
    {
      "StopPointName": "Municipal Chal (S.T.)",
      "Location": {
        "Longitude": 72.588491,
        "Latitude": 23.012478
      },
      "LineRef": "117/1-U",
      "Order": 8,
      "nextDistance": 408.56
    },
    {
      "StopPointName": "Amts Staff Quarters",
      "Location": {
        "Longitude": 72.584753,
        "Latitude": 23.011188
      },
      "LineRef": "117/1-U",
      "Order": 9,
      "nextDistance": 232.568
    },
    {
      "StopPointName": "Transport House Office",
      "Location": {
        "Longitude": 72.582626,
        "Latitude": 23.010463
      },
      "LineRef": "117/1-U",
      "Order": 10,
      "nextDistance": 228.044
    },
    {
      "StopPointName": "Jamalpur Darwaja",
      "Location": {
        "Longitude": 72.580891,
        "Latitude": 23.009541
      },
      "LineRef": "117/1-U",
      "Order": 11,
      "nextDistance": 320.654
    },
    {
      "StopPointName": "Calico Mills",
      "Location": {
        "Longitude": 72.580095,
        "Latitude": 23.006745
      },
      "LineRef": "117/1-U",
      "Order": 12,
      "nextDistance": 533.522
    },
    {
      "StopPointName": "Pumpimg Station",
      "Location": {
        "Longitude": 72.577415,
        "Latitude": 23.003265
      },
      "LineRef": "117/1-U",
      "Order": 13,
      "nextDistance": 264.607
    },
    {
      "StopPointName": "Chepirog Hospital",
      "Location": {
        "Longitude": 72.57617,
        "Latitude": 23.001178
      },
      "LineRef": "117/1-U",
      "Order": 14,
      "nextDistance": 221.114
    },
    {
      "StopPointName": "Grid Station",
      "Location": {
        "Longitude": 72.575071,
        "Latitude": 22.999466
      },
      "LineRef": "117/1-U",
      "Order": 15,
      "nextDistance": 315.228
    },
    {
      "StopPointName": "Saranagar",
      "Location": {
        "Longitude": 72.573613,
        "Latitude": 22.996966
      },
      "LineRef": "117/1-U",
      "Order": 16,
      "nextDistance": 217.837
    },
    {
      "StopPointName": "National Cloth Mills",
      "Location": {
        "Longitude": 72.572506,
        "Latitude": 22.995295
      },
      "LineRef": "117/1-U",
      "Order": 17,
      "nextDistance": 102.943
    },
    {
      "StopPointName": "Suez Treatment Plant",
      "Location": {
        "Longitude": 72.571992,
        "Latitude": 22.994499
      },
      "LineRef": "117/1-U",
      "Order": 18,
      "nextDistance": 100.556
    },
    {
      "StopPointName": "Hawada",
      "Location": {
        "Longitude": 72.571537,
        "Latitude": 22.993697
      },
      "LineRef": "117/1-U",
      "Order": 19,
      "nextDistance": 346.924
    },
    {
      "StopPointName": "Suez Farm Office",
      "Location": {
        "Longitude": 72.569871,
        "Latitude": 22.99098
      },
      "LineRef": "117/1-U",
      "Order": 20,
      "nextDistance": 616.631
    },
    {
      "StopPointName": "Suez Farm Approach",
      "Location": {
        "Longitude": 72.566895,
        "Latitude": 22.98616
      },
      "LineRef": "117/1-U",
      "Order": 21,
      "nextDistance": 463.671
    },
    {
      "StopPointName": "Exel Industries",
      "Location": {
        "Longitude": 72.564903,
        "Latitude": 22.98243
      },
      "LineRef": "117/1-U",
      "Order": 22,
      "nextDistance": 965.091
    },
    {
      "StopPointName": "Juna Octroinaka",
      "Location": {
        "Longitude": 72.561118,
        "Latitude": 22.974483
      },
      "LineRef": "117/1-U",
      "Order": 23,
      "nextDistance": 470.462
    },
    {
      "StopPointName": "Ganeshnagar",
      "Location": {
        "Longitude": 72.559335,
        "Latitude": 22.970585
      },
      "LineRef": "117/1-U",
      "Order": 24,
      "nextDistance": 380.246
    },
    {
      "StopPointName": "Popatkaka House",
      "Location": {
        "Longitude": 72.557915,
        "Latitude": 22.967425
      },
      "LineRef": "117/1-U",
      "Order": 25,
      "nextDistance": 599.487
    },
    {
      "StopPointName": "Saijpur-Gopalpura Patiya(Chiripal Industries)",
      "Location": {
        "Longitude": 72.55575,
        "Latitude": 22.962416
      },
      "LineRef": "117/1-U",
      "Order": 26,
      "nextDistance": 546.297
    },
    {
      "StopPointName": "Poly Fabrics",
      "Location": {
        "Longitude": 72.554428,
        "Latitude": 22.957671
      },
      "LineRef": "117/1-U",
      "Order": 27,
      "nextDistance": 314.11
    },